grdc_no,wmo_reg,sub_reg,mix_reg,nat_id,river,station,country_code,lat,long,area,altitude,ds_stat_no,w_level,d_start,d_end,d_yrs,d_miss,m_start,m_end,m_yrs,m_miss,t_start,t_end,t_yrs,lta_discharge,r_volume_yr,r_height_yr,proc_tyrs,proc_tmon,f_import,f_im_yr,l_import,l_im_yr,provider_id,acsys,flux2ocean,gems,gcos_gtn-h,statistics,Pristine Basins,GRDC Reference Dataset,AdaptAlp,ArctHycos
1201100,1,1,101,,MEJERDA,GHARDIMAOU,TN,36.270,8.430,   1480.  ,192,1201500,0,,,,,1976,1979,4,0.00,1976,1979,4,      3.02,       .1 ,64,100. ,100. ,18.2.1992,1992,18.2.1992,1992,-999,0,0,0,0,0,0,0,0,0
1201150,1,1,101,,MELLEGUE,K13,TN,36.120,8.500,   9000.  ,327,1201500,0,,,,,1976,1979,4,0.00,1976,1979,4,      4.67,       .15,16,100. ,100. ,18.2.1992,1992,18.2.1992,1992,-999,0,0,0,0,0,0,0,0,0
1201500,1,1,101,,MEJERDA,SLOUGHIA,TN,36.580,9.520,  20895.  ,67,0,0,,,,,1976,1979,4,0.00,1976,1979,4,     18.29,       .58,28,100. ,100. ,18.2.1992,1992,18.2.1992,1992,-999,0,0,0,0,0,0,0,0,0
1304100,1,4,104,169/2,EMSA,EMSA,MA,35.520,-5.300,    110.  ,5,0,0,1971,1988,18,0.00,1971,1988,18,0.00,1971,1988,18,       .69,       .02,198, 88.9,100. ,25.2.1992,1992,27.3.1996,1996,-999,0,0,0,0,0,0,0,0,0
1104150,1,4,104,,CHELIF,SIDI BELATAR,DZ,36.020,0.270,  43750.  ,2,0,0,1978,2001,24,58.35,1976,1977,2,0.00,1976,2001,26,     17.42,       .55,13, 38.5, 99.2,18.2.1992,1992,9.8.2005,2005,-999,0,1,0,1,1,0,1,0,0
1104200,1,4,104,,MINA,OUED EL-ABTAL,DZ,35.500,0.680,   6635.  ,205,1104150,0,,,,,1976,1978,3,0.00,1976,1978,3,      2.58,       .08,12, 66.7,100. ,18.2.1992,1992,18.2.1992,1992,-999,0,0,1,0,0,0,0,0,0
1104300,1,4,104,,RHIOU,AMMI MOUSSA,DZ,35.870,1.120,   2398.  ,140,1104150,0,,,,,1976,1979,4,0.00,1976,1979,4,      3.23,       .1 ,42,100. ,100. ,18.2.1992,1992,18.2.1992,1992,-999,0,0,1,0,0,0,0,0,0
1104450,1,4,104,,MAZAFRAN,FER A CHEVAL,DZ,36.670,2.820,   1912.  ,10,0,0,1979,1995,17,0.03,1976,1978,3,0.00,1976,1995,20,      3.72,       .12,61, 90. ,100. ,18.2.1992,1992,9.8.2005,2005,-999,0,0,0,0,0,0,0,0,0
1104480,1,4,104,,BOUDOUAOU,KEDDARA,DZ,36.650,3.420,    829.  ,60,1104500,0,,,,,1976,1979,4,0.00,1976,1979,4,       .36,       .01,14, 75. ,100. ,18.2.1992,1992,18.2.1992,1992,-999,0,0,1,0,0,0,0,0,0
1104500,1,4,104,,ISSER,LAKHDARIA,DZ,36.620,3.580,   4149.  ,90,0,0,,,,,1976,1979,4,0.00,1976,1979,4,      6.47,       .2 ,49, 75. ,100. ,18.2.1992,1992,18.2.1992,1992,-999,0,0,1,0,0,0,0,0,0
1104530,1,4,104,,SEBAOU,BAGHLIA,DZ,36.800,3.870,   2501.  ,20,0,0,,,,,1976,1979,4,0.00,1976,1979,4,     17.79,       .56,224,100. ,100. ,18.2.1992,1992,18.2.1992,1992,-999,0,0,0,1,0,0,0,0,0
1104600,1,4,104,,BOUSELAM,SIDI YAHIA,DZ,36.420,4.600,   4309.  ,220,0,0,1988,1997,10,0.00,1976,1978,3,0.00,1976,1997,22,      4.69,       .15,34, 50. , 98.5,18.2.1992,1992,9.8.2005,2005,-999,0,0,0,0,1,0,0,0,0
1104700,1,4,104,,RHUMEL,OUED ATHMANIA,DZ,36.230,6.300,   1220.  ,710,0,0,,,,,1976,1978,3,0.00,1976,1978,3,       .08,       .  ,2, 66.7,100. ,18.2.1992,1992,18.2.1992,1992,-999,0,0,1,0,0,0,0,0,0
1104800,1,4,104,,MELAH,BOUCHEGOUF,DZ,36.450,7.720,    552.  ,95,0,0,1978,2003,26,8.02,1976,1977,2,0.00,1976,2003,28,      2.88,       .09,165, 78.6,100. ,18.2.1992,1992,9.8.2005,2005,-999,0,0,0,0,0,0,0,0,0
1304800,1,4,104,1447/6,KERT,DAR DRIOUCH,MA,34.900,-3.290,   1353.  ,273,0,0,1969,1987,19,0.92,1969,1987,19,0.46,1969,1987,19,       .67,       .02,16, 89.5,100. ,25.2.1992,1992,27.3.1996,1996,-999,0,0,0,0,0,0,0,0,0
1204900,1,4,104,,JOUMINE,DJEBEL ANTRA,TN,36.950,9.470,    235.  ,130,0,0,,,,,1976,1979,4,0.00,1976,1979,4,      1.63,       .05,218,100. ,100. ,18.2.1992,1992,18.2.1992,1992,-999,0,0,0,0,0,0,0,0,0
1107700,1,7,107,,TAFNA,PIERRE DU CHAT,DZ,35.150,-1.450,   7245.  ,60,0,0,1979,2001,23,1.85,1976,1979,4,16.67,1976,2001,26,      2.84,       .09,12, 88.5, 99.3,18.2.1992,1992,9.8.2005,2005,-999,0,0,0,0,1,0,0,0,0
1107800,1,7,107,,ISSER (TRIB. TAFNA),BENSEKRANE,DZ,35.070,-1.220,   1118.  ,287,1107800,0,1979,1999,21,0.04,1976,1978,3,0.00,1976,1999,24,       .69,       .02,20, 91.7,100. ,18.2.1992,1992,9.8.2005,2005,-999,0,0,1,0,0,0,0,0,0
1308100,1,8,108,318/30,MOULOUYA,ZEIDA,MA,32.970,-4.900,   1673.  ,1450,1308600,0,1976,1988,13,0.00,1976,1988,13,0.00,1976,1988,13,      1.72,       .05,32, 84.6,100. ,25.2.1992,1992,27.3.1996,1996,-999,0,0,0,0,0,0,0,0,0
1308110,1,8,108,658/38,ANSGEMIR,ANSEGMIR,MA,32.750,-4.900,    960.  ,450,1308100,0,1959,1988,30,0.02,1959,1988,30,0.00,1959,1988,30,      2.49,       .08,82, 96.7, 99.7,25.2.1992,1992,27.3.1996,1996,-999,0,0,0,0,0,0,0,0,0
1308600,1,8,108,,MOULOUYA,DAR EL CAID,MA,34.240,-3.320,  24422.  ,325,0,0,,,,,1957,1988,32,1.31,1957,1988,32,     20.28,       .64,26, 96.9, 99.2,28.2.1992,1992,28.2.1992,1992,-999,0,0,0,0,1,0,1,0,0
1309200,1,9,109,510/48,NFIS,NKOURIS,MA,31.080,-8.100,    848.  ,1100,0,0,1976,1988,13,0.89,1976,1988,13,0.69,1976,1988,13,      2.49,       .08,93, 84.6, 99.2,25.2.1992,1992,27.3.1996,1996,-999,0,0,0,0,0,0,0,0,0
1309500,1,9,109,,BOUREGREG,LALLA CHAFIA,MA,33.700,-6.540,   3230.  ,180,0,0,,,,,1980,1984,5,0.00,1980,1984,5,      2.17,       .07,21, 80. ,100. ,28.2.1992,1992,28.2.1992,1992,-999,0,0,0,0,0,0,0,0,0
1309520,1,9,109,548/29,GROU,OULJET HABOUB,MA,33.210,-6.230,   1627.  ,548,0,0,1976,1988,13,0.00,1976,1988,13,0.00,1976,1988,13,      3.83,       .12,74, 84.6,100. ,25.2.1992,1992,27.3.1996,1996,-999,0,0,0,0,0,0,0,0,0
1309550,1,9,109,,EL ABID,AIT OUCHENE,MA,32.250,-6.080,   2350.  ,1070,0,0,,,,,1980,1984,5,0.00,1980,1984,5,      3.04,       .1 ,41, 80. ,100. ,28.2.1992,1992,28.2.1992,1992,-999,0,0,0,0,0,0,0,0,0
1309560,1,9,109,2605/37,OUIRINE,TIZI N'ISLY,MA,32.440,-5.630,-    999.  ,-999,1309600,0,1976,1988,13,8.33,1976,1988,13,8.33,1976,1988,13,      3.32,       .11,-999, 69.2,100. ,25.2.1992,1992,27.3.1996,1996,-999,0,0,0,0,0,0,0,0,0
1309570,1,9,109,87/88,AGUENNOUR,TSALAT,MA,33.330,-6.030,    690.  ,650,1309500,0,1977,1988,12,0.61,1977,1988,12,0.74,1977,1988,12,      1.44,       .05,66, 91.7, 98.5,25.2.1992,1992,27.3.1996,1996,-999,0,0,0,0,0,0,0,0,0
1309600,1,9,109,,OUM ER RBIA,DECHRA EL OUED,MA,32.680,-5.900,   3330.  ,591,0,0,,,,,1953,1989,37,0.94,1953,1989,37,     31.38,       .99,297, 91.9,100. ,28.2.1992,1992,28.2.1992,1992,-999,0,0,0,0,1,0,0,0,0
1309620,1,9,109,1376/29,OUM ER RBIA,TARHAT,MA,33.000,-5.670,   1036.  ,866,1309600,0,1975,1987,13,0.00,1975,1987,13,0.00,1975,1987,13,     16.69,       .53,508, 92.3,100. ,25.2.1992,1992,27.3.1996,1996,-999,0,0,0,0,0,1,0,0,0
1309650,1,9,109,630/1,KHOBZ,KANNOUA,MA,35.520,-5.840,    220.  ,6,0,0,1971,1988,18,0.32,1971,1988,18,0.49,1971,1988,18,      1.55,       .05,222, 88.9,100. ,25.2.1992,1992,27.3.1996,1996,-999,0,0,0,0,0,0,0,0,0
1309660,1,9,109,476/1,TAIFINE,KALAYA,MA,35.610,-5.730,     40.  ,30,0,0,1976,1987,12,0.00,1976,1987,12,0.00,1976,1987,12,       .63,       .02,495, 83.3,100. ,25.2.1992,1992,27.3.1996,1996,-999,0,0,0,0,0,0,0,0,0
1309675,1,9,109,612/4,LOUKKOS,MDOUAR,MA,35.000,-5.500,    667.  ,84,0,0,1969,1988,20,0.00,1969,1988,20,0.00,1969,1988,20,     15.36,       .49,726, 90. ,100. ,25.2.1992,1992,27.3.1996,1996,-999,0,0,0,0,0,0,0,0,0
1309700,1,9,109,,SEBOU,AZIB SOLTANE,MA,34.280,-5.430,  17250.  ,70,0,0,,,,,1959,1989,31,0.00,1959,1989,31,     56.95,      1.8 ,104, 93.5,100. ,28.2.1992,1992,28.2.1992,1992,-999,0,0,1,0,1,0,1,0,0
1309720,1,9,109,609/9,OUERGHA,M'JARA,MA,34.590,-5.250,   6190.  ,85,0,0,1976,1990,15,0.16,1951,1990,40,1.08,1951,1990,40,     87.82,      2.77,447, 95. ,100. ,25.2.1992,1992,28.2.1992,1992,-999,0,0,1,0,1,0,0,0,0
1309750,1,9,109,,OUERGHA,OURTZAGH,MA,34.620,-5.010,   4404.  ,140,1309720,0,,,,,1951,1989,39,0.22,1951,1989,39,     60.58,      1.91,434, 94.9, 99.8,28.2.1992,1992,28.2.1992,1992,-999,0,0,0,0,1,0,0,0,0
1309800,1,9,109,,SEBOU,AIN TIMEDRINE,MA,33.750,-4.530,   4392.  ,645,1309700,0,,,,,1965,1984,20,0.00,1965,1984,20,     18.36,       .58,132, 95. ,100. ,28.2.1992,1992,28.2.1992,1992,-999,0,0,0,0,1,0,0,0,0
1309810,1,9,109,582/22,MDEZ,PONT DU MDEZ,MA,33.670,-4.500,   3435.  ,725,1309800,0,1956,1990,35,0.65,1956,1990,35,0.50,1956,1990,35,      6.29,       .2 ,58, 94.3, 99.5,25.2.1992,1992,27.3.1996,1996,-999,0,0,0,0,1,0,0,0,0
1309850,1,9,109,260/9,OUERGHA,BAB OUENDER,MA,34.600,-4.550,   1758.  ,540,1309750,0,1952,1990,39,1.04,1952,1990,39,0.88,1952,1990,39,     18.19,       .57,326, 97.4, 99.1,25.2.1992,1992,27.3.1996,1996,-999,0,0,0,0,0,0,0,0,0
1310400,1,10,110,509/55,DADES,AIT MOUTADE,MA,31.410,-5.470,   1550.  ,1545,0,0,1970,1987,18,0.00,1970,1987,18,0.00,1970,1987,18,      2.39,       .08,49, 88.9,100. ,25.2.1992,1992,27.3.1996,1996,-999,0,0,0,0,0,0,0,0,0
1310500,1,10,110,1508/38,ZIA,FOUM TILLICH,MA,32.230,-4.520,   1240.  ,1400,0,0,1974,1989,16,0.00,1974,1989,16,0.00,1974,1989,16,      1.35,       .04,34, 87.5,100. ,25.2.1992,1992,27.3.1996,1996,-999,0,0,0,0,0,0,0,0,0
1310600,1,10,110,628/48,GUIR,TAZZOUGUERT,MA,32.000,-3.750,   2370.  ,1052,0,0,1976,1989,14,0.91,1976,1989,14,1.28,1976,1989,14,       .59,       .02,8, 85.7, 98.6,25.2.1992,1992,27.3.1996,1996,-999,0,0,0,0,0,0,0,0,0
1512100,1,12,112,151,GORGOL BLANC,AGUEILLAT,MR,16.920,-12.380,   8370.  ,-999,1812100,0,1978,1985,8,12.63,1978,1985,8,12.50,1978,1985,8,      2.01,       .06,8, 87.5,100. ,13.1.1992,1992,27.3.1996,1996,-999,0,0,0,0,0,0,0,0,0
1812100,1,12,112,,SENEGAL,DAGANA,SN,16.520,-15.500, 268000.  ,-999,0,0,,,,,1903,1974,72,8.74,1903,1974,72,    690.8 ,     21.79,81, 84.7,100. ,28.2.1992,1992,28.2.1992,1992,-999,0,1,1,0,1,0,1,0,0
1112100,1,12,112,,SENEGAL,KAYES,ML,14.450,-11.280, 157400.  ,20,1812500,0,1981,1990,10,70.02,1951,1990,40,0.00,1951,1990,40,    475.39,     14.99,95, 97.5,100. ,29.1.1992,1992,26.6.1992,1992,-999,0,0,0,0,1,0,0,0,0
1112110,1,12,112,,KOLIMBINE,KABATE,ML,14.310,-11.130,  25000.  ,-999,1112100,0,1981,1990,10,70.87,1981,1990,10,70.83,1981,1990,10,      5.71,       .18,7, 30. , 97.2,29.1.1992,1992,27.3.1996,1996,-999,0,0,0,0,1,0,0,0,0
1112200,1,12,112,,FALEME,GOURBASSY,ML,13.230,-11.380,  15000.  ,-999,1812600,0,1981,1990,10,71.69,1954,1990,37,0.00,1954,1990,37,    114.66,      3.62,241, 97.3,100. ,29.1.1992,1992,26.6.1992,1992,-999,0,0,0,0,1,0,1,0,0
1512200,1,12,112,151,GHORFA,GHORFA AVAL,MR,15.530,-12.700,   5050.  ,-999,1812300,0,1979,1985,7,31.21,1979,1985,7,30.95,1979,1985,7,     11.87,       .37,74, 71.4, 96.7,13.1.1992,1992,27.3.1996,1996,-999,0,0,0,0,0,0,0,0,0
1812300,1,12,112,,SENEGAL,MATAM,SN,15.650,-13.250, 230000.  ,-999,1812100,0,,,,,1903,1974,72,0.00,1903,1974,72,    763.71,     24.08,105, 97.2,100. ,28.2.1992,1992,28.2.1992,1992,-999,0,0,0,0,1,0,1,0,0
1112300,1,12,112,,SENEGAL,GALOUGO,ML,13.830,-11.130, 127000.  ,69,1112100,0,1981,1990,10,70.02,1905,1990,86,35.02,1905,1990,86,    503.3 ,     15.87,125, 58.1,100. ,29.1.1992,1992,26.6.1992,1992,-999,0,0,0,0,1,0,1,0,0
1512300,1,12,112,1512050,NIORDE,HARR,MR,15.280,-12.550,   1550.  ,-999,1812300,0,1985,1985,1,0.27,1985,1985,1,0.00,1985,1985,1,      4.48,       .14,91,100. ,100. ,13.1.1992,1992,27.3.1996,1996,-999,0,0,0,0,0,0,0,0,0
1112320,1,12,112,,BAKOYE,OUALIA,ML,13.360,-9.230,  84400.  ,-999,1112300,0,1981,1990,10,70.02,1951,1990,40,29.20,1951,1990,40,    129.41,      4.08,48, 62.5, 98.7,29.1.1992,1992,26.6.1992,1992,-999,0,0,0,0,1,0,1,0,0
1112330,1,12,112,,"BAOULE (TRIB. ATUI, SENEGAL)",SIRAMAKANA,ML,13.340,-9.530,  58000.  ,-999,1112320,0,1981,1990,10,73.36,1972,1990,19,60.96,1972,1990,19,     14.31,       .45,8, 21.1,100. ,29.1.1992,1992,28.2.1992,1992,-999,0,0,0,0,1,0,0,0,0
1112340,1,12,112,,BAKOYE,TOUKOTO,ML,13.450,-9.880,  16000.  ,-999,1112320,0,1987,1990,4,50.03,1952,1990,39,41.59,1952,1990,39,     69.47,      2.19,137, 46.2, 98.6,28.2.1992,1992,24.6.1992,1992,-999,0,0,0,0,1,0,1,0,0
1112350,1,12,112,,"BAFING (TRIB. ATUI, SENEGAL)",DIBIA,ML,13.140,-10.480,  33000.  ,-999,1112300,0,1981,1990,10,81.68,1951,1990,40,20.38,1951,1990,40,    320.95,     10.12,307, 62.5, 97.3,29.1.1992,1992,28.2.1992,1992,-999,0,0,0,0,1,0,1,0,0
1112400,1,12,112,,FALEME,FADOUGOU,ML,12.310,-11.230,   9300.  ,-999,1112200,0,1981,1990,10,70.02,1952,1990,39,6.05,1952,1990,39,     85.85,      2.71,291, 84.6,100. ,29.1.1992,1992,28.2.1992,1992,-999,0,0,0,0,1,0,0,0,0
1112480,1,12,112,,"BAFING (TRIB. ATUI, SENEGAL)",DAKA SAYDOU,ML,12.150,-10.200,  15500.  ,-999,1112500,0,1981,1990,10,71.71,1952,1990,39,27.37,1952,1990,39,    256.92,      8.1 ,523, 69.2, 97.8,29.1.1992,1992,28.2.1992,1992,-999,0,0,0,0,1,0,0,0,0
1112500,1,12,112,,"BAFING (TRIB. ATUI, SENEGAL)",BAFING MAKANA,ML,12.330,-10.160,  21700.  ,-999,1112350,0,1981,1990,10,70.18,1981,1990,10,70.00,1981,1990,10,    165.21,      5.21,240, 30. ,100. ,29.1.1992,1992,27.3.1996,1996,-999,0,0,0,0,1,0,0,0,0
1812500,1,12,112,,SENEGAL,BAKEL,SN,14.900,-12.450, 218000.  ,11,1812300,0,1979,1989,11,50.67,1904,1989,86,18.75,1904,1989,86,    748.69,     23.61,108, 50. , 96.7,16.1.1992,1992,30.12.1993,1993,-999,0,0,0,0,1,0,1,0,0
1812600,1,12,112,,FALEME,KIDIRA,SN,14.450,-12.220,  28900.  ,20,1812500,0,1979,1989,11,50.43,1930,1989,60,21.64,1930,1989,60,    182.59,      5.76,199, 61.7,100. ,16.1.1992,1992,30.12.1993,1993,-999,0,0,0,0,1,0,1,0,0
1813180,1,13,113,,SIMA,SINTHIANG KOUNDARA,SN,13.250,-13.920,    495.  ,-999,0,0,1981,1984,4,35.29,1981,1984,4,35.00,1981,1984,4,       .01,       .  ,1, 25. ,100. ,16.1.1992,1992,27.3.1996,1996,-999,0,0,0,0,0,0,0,0,0
1813200,1,13,113,,GAMBIA,GOULOUMBOU,SN,13.470,-13.730,  42000.  ,0,0,0,1979,1989,11,51.50,1970,1994,25,12.16,1970,1994,25,    146.87,      4.63,110, 80. ,100. ,16.1.1992,1992,14.7.1998,1998,-999,0,1,0,0,1,0,1,0,0
1813250,1,13,113,,NIAOULE,NIAOULE TANOU,SN,13.480,-13.680,   1230.  ,10,1813200,0,1979,1985,7,33.35,1970,1985,16,13.33,1970,1985,16,       .16,       .01,4, 62.5,100. ,16.1.1992,1992,18.2.1992,1992,-999,0,0,0,0,0,0,0,0,0
1813300,1,13,113,,KOULOUNTOU,GUE DU P.N.N.K.,SN,12.780,-13.480,   5350.  ,-999,1813320,0,1979,1983,5,69.39,1971,1994,24,0.00,1971,1994,24,     27.37,       .86,161,100. ,100. ,16.1.1992,1992,14.7.1998,1998,-999,0,0,0,0,1,0,0,0,0
1813320,1,13,113,1813054,KOULOUNTOU,MISSIRAH GOUNAS,SN,13.200,-13.620,   6200.  ,2,1813200,0,,,,,1971,1995,25,1.33,1971,1995,25,     28.54,       .9 ,145, 96. ,100. ,14.7.1998,1998,14.7.1998,1998,-999,0,0,0,0,1,0,0,0,0
1813350,1,13,113,,SANDOUGOU,SINTHIOU MALEME,SN,13.820,-13.900,   6900.  ,-999,0,0,1981,1989,9,75.02,1981,1989,9,75.00,1981,1989,9,       .  ,-    999.  ,-999,   . ,,16.1.1992,1992,27.3.1996,1996,-999,0,0,0,0,0,0,0,0,0
1813400,1,13,113,,NIERIKO,GOUMBEYEL,SN,13.680,-13.170,   6800.  ,-999,1813450,0,1981,1983,3,0.82,1981,1983,3,0.00,1981,1983,3,       .09,       .  ,0, 33.3,100. ,16.1.1992,1992,27.3.1996,1996,-999,0,0,0,0,0,0,0,0,0
1813450,1,13,113,,GAMBIA,WASSADOU AVAL,SN,13.350,-13.380,  33500.  ,4,1813200,0,1979,1989,11,51.46,1973,1994,22,23.46,1973,1994,22,    123.26,      3.89,116, 59.1,100. ,16.1.1992,1992,14.7.1998,1998,-999,0,0,0,0,1,0,0,0,0
1813460,1,13,113,,GAMBIA,WASSADOU AMONT,SN,13.350,-13.370,  21200.  ,5,1813450,0,1979,1989,11,60.82,1970,1994,25,24.32,1970,1994,25,    121.35,      3.83,181, 64. ,100. ,16.1.1992,1992,14.7.1998,1998,-999,0,0,0,0,1,0,0,0,0
1813500,1,13,113,,GAMBIA,SIMENTI,SN,13.030,-13.300,  20500.  ,10,1813460,0,1979,1989,11,52.91,1970,1994,25,20.95,1970,1994,25,    120.39,      3.8 ,185, 64. ,100. ,16.1.1992,1992,14.7.1998,1998,-999,0,0,0,0,1,0,0,0,0
1813550,1,13,113,,DIARHA,PONT ROUTIER,SN,12.620,-12.770,    760.  ,47,1813500,0,1979,1985,7,34.03,1972,1985,14,15.38,1972,1985,14,      7.28,       .23,302, 57.1,100. ,16.1.1992,1992,18.2.1992,1992,-999,0,0,0,0,0,0,0,0,0
1813600,1,13,113,,NIOKOLO-KOBA,PONT ROUTIER,SN,13.070,-12.730,   3000.  ,48,1813500,0,1977,1987,11,14.90,1970,1987,18,14.22,1970,1987,18,      6.03,       .19,63, 72.2, 99.4,16.1.1992,1992,18.2.1992,1992,-999,0,0,0,0,1,0,0,0,0
1813650,1,13,113,,THIOKOYE,PONT ROUTIER,SN,12.570,-12.530,    950.  ,113,1813500,0,1977,1989,13,23.07,1971,1989,19,18.06,1971,1989,19,      9.18,       .29,305, 63.2, 98.6,16.1.1992,1992,30.12.1993,1993,-999,0,0,0,0,0,0,0,0,0
1813700,1,13,113,,GAMBIA,MAKO,SN,12.870,-12.350,  10450.  ,75,1813500,0,1979,1989,11,50.23,1970,1994,25,20.27,1970,1994,25,     87.6 ,      2.76,264, 64. ,100. ,16.1.1992,1992,14.7.1998,1998,-999,0,0,0,0,1,0,0,0,0
1813750,1,13,113,,SILI,PONT ROUTIER,SN,12.530,-12.270,     90.  ,-999,1813700,0,1977,1989,13,16.13,1977,1989,13,13.89,1977,1989,13,       .38,       .01,133, 61.5, 96.9,16.1.1992,1992,27.3.1996,1996,-999,0,0,0,0,0,0,0,0,0
1813780,1,13,113,,GAMBIA,KEDOUGOU,SN,12.550,-12.180,   7550.  ,102,1813700,0,1979,1989,11,50.01,1970,1994,25,12.16,1970,1994,25,     73.4 ,      2.32,307, 80. ,100. ,16.1.1992,1992,14.7.1998,1998,-999,0,0,0,0,1,0,0,0,0
1813800,1,13,113,,DIAGUERI,PONT ROUTIER,SN,12.630,-12.080,   1010.  ,-999,1813700,0,1977,1988,12,18.13,1977,1988,12,17.86,1977,1988,12,      6.15,       .19,192, 58.3,100. ,16.1.1992,1992,27.3.1996,1996,-999,0,0,0,0,0,0,0,0,0
1814070,1,14,114,1193401032,GEBA,SONACO,GW,12.430,-14.500,   7340.  ,4,0,0,,,,,1979,1993,15,33.89,1979,1993,15,      1.47,       .05,6, 40. , 97.2,14.7.1998,1998,14.7.1998,1998,-999,0,0,0,0,1,0,0,0,0
1814400,1,14,114,,GEBA,KAYANGA AVAL (PONT WASSADOU),SN,12.830,-14.130,   2870.  ,-999,1814070,0,1979,1983,5,26.43,1979,1983,5,26.67,1979,1983,5,       .21,       .01,2, 20. ,100. ,16.1.1992,1992,27.3.1996,1996,-999,0,0,0,0,0,0,0,0,0
1815020,1,15,115,1193402011,CORUBAL,SALTINHO AMONT,GW,11.560,-14.670,  23840.  ,26,0,0,,,,,1977,1994,18,0.00,1977,1994,18,    313.73,      9.89,415, 94.4, 99.5,14.7.1998,1998,14.7.1998,1998,-999,0,0,0,0,1,0,1,0,0
1815070,1,15,115,1193402020,CORUBAL,TCHE-TCHE,GW,11.930,-14.210,  21880.  ,35,1815020,0,,,,,1977,1994,18,0.00,1977,1994,18,    281.36,      8.87,406,100. , 99.1,14.7.1998,1998,14.7.1998,1998,-999,0,0,0,0,1,0,0,0,0
1615500,1,15,115,,CORUBAL,GAOUAL,GN,11.780,-13.200,   9749.  ,100,1815070,0,1978,1980,3,0.09,1978,1980,3,0.00,1978,1980,3,    174.09,      5.49,563,100. ,100. ,17.1.1992,1992,27.3.1996,1996,-999,0,0,0,0,0,0,0,0,0
1816100,1,16,116,,PANETIOR,BOUNGA BAMBARA,SN,14.750,-17.170,     88.5 ,-999,0,0,1982,1983,2,0.00,1982,1983,2,0.00,1982,1983,2,       .  ,-    999.  ,-999,   . ,,16.1.1992,1992,27.3.1996,1996,-999,0,0,0,0,0,0,0,0,0
1316100,1,16,116,,SANGWIN,TOURNOUTA-BAFU BAY,LR,5.300,-9.300,    761.  ,-999,0,0,,,,,1976,1978,3,8.33,1976,1978,3,    119.61,      3.77,4956,100. , 91.7,18.2.1992,1992,18.2.1992,1992,-999,0,0,0,0,0,0,0,0,0
1816200,1,16,116,,NEMA,NEMA BA,SN,13.730,-16.480,     58.  ,-999,0,0,1979,1983,5,27.09,1979,1983,5,26.09,1979,1983,5,       .  ,       .  ,2, 20. ,100. ,16.1.1992,1992,27.3.1996,1996,-999,0,0,0,0,0,0,0,0,0
1216300,1,16,116,,PAMPANA,MATOTOKA,SL,8.670,-11.870,   2407.  ,9,0,0,,,,,1976,1979,4,23.40,1976,1979,4,    124.  ,      3.91,1625, 50. ,100. ,18.2.1992,1992,18.2.1992,1992,-999,0,0,0,0,0,0,0,0,0
1216350,1,16,116,,SELI,BUMBUNA,SL,9.030,-11.900,   3990.  ,12,0,0,,,,,1976,1979,4,16.67,1976,1979,4,    124.33,      3.92,983, 50. ,100. ,18.2.1992,1992,18.2.1992,1992,-999,0,0,0,0,0,0,0,0,0
1216400,1,16,116,,SELI,BADALA,SL,9.320,-11.530,   2625.  ,19,1216350,0,,,,,1976,1977,2,21.43,1976,1977,2,       .  ,-    999.  ,-999,   . ,,18.2.1992,1992,18.2.1992,1992,-999,0,0,0,0,0,0,0,0,0
1816400,1,16,116,,CASAMANCE,KOLDA,GW,12.530,-14.560,   3700.  ,1,0,0,1979,1983,5,27.79,1967,1983,17,1.01,1967,1983,17,      1.81,       .06,15, 94.1, 99. ,16.1.1992,1992,18.2.1992,1992,-999,0,0,0,0,1,0,0,0,0
1216430,1,16,116,,BUNDOYA,PALIMA,SL,8.100,-11.320,    361.  ,14,0,0,,,,,1976,1979,4,2.17,1976,1979,4,     29.56,       .93,2582, 75. ,100. ,18.2.1992,1992,18.2.1992,1992,-999,0,0,0,0,0,0,0,0,0
1216450,1,16,116,,SEWA,JAIAMA SAWAFE,SL,8.570,-11.270,   6870.  ,25,0,0,,,,,1976,1979,4,19.15,1976,1979,4,    113.78,      3.59,522, 50. , 95.8,18.2.1992,1992,18.2.1992,1992,-999,0,0,0,0,0,0,0,0,0
1816450,1,16,116,,MARIGOT DE SARE KOUTAYEL,SARE KOUTAYEL,SN,12.920,-14.880,    640.  ,-999,0,0,1981,1983,3,0.55,1981,1983,3,0.00,1981,1983,3,       .01,       .  ,0, 33.3,100. ,16.1.1992,1992,27.3.1996,1996,-999,0,0,0,0,0,0,0,0,0
1816490,1,16,116,,TIANGOL DIANGUINA,SARE SARA,SN,12.830,-14.250,    815.  ,-999,1816400,0,1981,1983,3,1.10,1981,1983,3,0.00,1981,1983,3,       .02,       .  ,1, 33.3,100. ,16.1.1992,1992,27.3.1996,1996,-999,0,0,0,0,0,0,0,0,0
1816500,1,16,116,,KHORINA,MEDINA OMAR,SN,12.850,-14.730,    385.  ,-999,1816450,0,1977,1988,12,9.13,1977,1988,12,9.09,1977,1988,12,       .06,       .  ,5, 66.7,100. ,16.1.1992,1992,27.3.1996,1996,-999,0,0,0,0,0,0,0,0,0
1216500,1,16,116,,MABOA,DODO,SL,8.150,-11.150,     57.  ,27,0,0,,,,,1976,1978,3,3.45,1976,1978,3,      4.  ,       .13,2213, 66.7,100. ,18.2.1992,1992,18.2.1992,1992,-999,0,0,0,0,0,0,0,0,0
1616700,1,16,116,,KONKOURE,PONT DE TELIMELE,GN,10.500,-12.900,  10250.  ,154,0,0,,,,,1976,1979,4,4.17,1976,1979,4,    262.38,      8.28,807,100. , 95.8,18.2.1992,1992,18.2.1992,1992,-999,0,0,0,0,0,0,0,0,0
1617800,1,17,117,,GREAT SCARCIES,BADERA,GN,9.870,-12.520,   2750.  ,-999,0,0,1978,1980,3,2.82,1978,1980,3,2.86,1978,1980,3,     56.1 ,      1.77,643,100. , 94.4,17.1.1992,1992,27.3.1996,1996,-999,0,0,0,0,0,0,0,0,0
1617900,1,17,117,,KOKOULO,DIAWLA,GN,10.080,-12.420,    401.  ,-999,1617800,0,1978,1980,3,0.27,1978,1980,3,0.00,1978,1980,3,     11.07,       .35,871,100. ,100. ,17.1.1992,1992,27.3.1996,1996,-999,0,0,0,0,0,0,0,0,0
1219500,1,19,119,,MOA,MOA BRIDGE,SL,7.820,-11.170,  17150.  ,50,0,0,,,,,1976,1977,2,0.00,1976,1977,2,       .  ,-    999.  ,-999,   . ,,18.2.1992,1992,18.2.1992,1992,-999,0,0,0,0,0,0,0,0,0
1619600,1,19,119,,MAKONA,NONGOA,GN,8.500,-10.330,   5745.  ,325,1219500,0,,,,,1976,1979,4,4.17,1976,1979,4,    207.7 ,      6.55,1140,100. , 95.8,18.2.1992,1992,18.2.1992,1992,-999,0,0,0,0,0,0,0,0,0
1321800,1,21,121,,LOFA,DOUGOMAI,LR,8.200,-9.750,    246.  ,-999,0,0,,,,,1973,1977,5,0.00,1973,1977,5,     51.88,      1.64,6650, 80. , 97.9,18.2.1992,1992,18.2.1992,1992,-999,0,0,0,0,0,0,0,0,0
1622500,1,22,122,,DIANI,BAC,GN,8.060,-9.070,   4095.  ,375,1322800,0,1978,1980,3,0.73,1976,1980,5,3.33,1976,1980,5,     91.97,      2.9 ,708,100. , 96.7,17.1.1992,1992,18.2.1992,1992,-999,0,0,0,0,0,0,0,0,0
1322800,1,22,122,,ST. PAUL,WALKER BRIDGE,LR,7.330,-9.530,   9760.  ,-999,0,0,,,,,1973,1975,3,0.00,1973,1975,3,    213.31,      6.73,689,100. ,100. ,18.2.1992,1992,18.2.1992,1992,-999,0,0,0,0,0,0,0,0,0
1323400,1,23,123,,ZOR,GBARNGA,LR,7.020,-9.480,     39.  ,-999,0,0,,,,,1976,1977,2,4.17,1976,1977,2,      5.57,       .18,4502,100. , 95.8,18.2.1992,1992,18.2.1992,1992,-999,0,0,0,0,0,0,0,0,0
1323500,1,23,123,,ST. JOHN,BAILA,LR,7.070,-9.170,    575.  ,-999,0,0,,,,,1973,1979,7,1.37,1973,1979,7,    143.97,      4.54,7896, 71.4, 98.3,18.2.1992,1992,18.2.1992,1992,-999,0,0,0,0,0,0,0,0,0
1324500,1,24,124,,CESS,SAWOLO,LR,6.430,-8.630,    683.  ,-999,1324510,0,,,,,1976,1979,4,0.00,1976,1979,4,     52.52,      1.66,2425,100. ,100. ,18.2.1992,1992,18.2.1992,1992,-999,0,0,0,0,0,0,0,0,0
1324510,1,24,124,,CESS,UNIFICATION BRIDGE,LR,6.000,-8.600,-    999.  ,-999,0,0,,,,,1973,1975,3,0.00,1973,1975,3,     40.75,      1.29,-999,100. ,100. ,18.2.1992,1992,18.2.1992,1992,-999,0,0,0,0,0,0,0,0,0
1425100,1,25,125,9550103,CAVALLY,FLAMPLEU,CI,7.250,-8.060,   2470.  ,-999,1425100,0,1979,1993,15,80.03,1982,1983,2,0.00,1979,1993,15,     31.02,       .98,396, 26.7,100. ,17.1.1992,1992,1.7.1998,1998,-999,0,0,0,0,0,0,0,0,0
1425300,1,25,125,9552003,NCE,TAI,CI,5.910,-7.440,   1250.  ,-999,1425350,0,1979,1993,15,82.59,1979,1982,4,56.25,1979,1993,15,     14.7 ,       .46,371, 13.3,100. ,17.1.1992,1992,1.7.1998,1998,-999,0,0,0,0,0,0,0,0,0
1425350,1,25,125,9550106,CAVALLY,TAI,CI,5.850,-7.430,  13750.  ,-999,1425350,0,1979,1982,4,50.03,1982,1983,2,0.00,1979,1983,5,    142.13,      4.48,326, 60. ,100. ,17.1.1992,1992,28.2.1992,1992,-999,0,0,0,0,0,0,0,0,0
1425450,1,25,125,9551003,HANA,NIEBE,CI,5.370,-7.310,   4200.  ,-999,1425500,0,1979,1993,15,80.01,1979,1982,4,50.00,1979,1993,15,     60.58,      1.91,455, 20. ,100. ,17.1.1992,1992,1.7.1998,1998,-999,0,0,0,0,1,0,0,0,0
1425500,1,25,125,9550109,CAVALLY,TATE,CI,4.380,-7.590,  28800.  ,-999,0,0,1970,1996,27,12.11,1979,1982,4,50.00,1970,1996,27,    480.61,     15.16,526, 74.1, 96.7,27.3.1996,1996,18.3.1999,1999,-999,0,1,0,0,1,0,0,0,0
1426010,1,26,126,9901503,TABOU,YAKA,CI,4.490,-7.380,    810.  ,-999,0,0,1979,1993,15,81.31,1979,1982,4,54.17,1979,1993,15,     24.23,       .76,943, 20. , 94.4,17.1.1992,1992,1.7.1998,1998,-999,0,0,0,0,0,0,0,0,0
1426050,1,26,126,9882003,NERO,GRANDE BEREBY,CI,4.740,-6.910,    980.  ,-999,0,0,1979,1993,15,80.78,1979,1982,4,50.00,1979,1993,15,     16.83,       .53,541, 20. , 97.2,17.1.1992,1992,1.7.1998,1998,-999,0,0,0,0,0,0,0,0,0
1426100,1,26,126,9015002,YANI,MADJI,CI,8.740,-6.850,   1000.  ,-999,1426180,0,1979,1993,15,80.01,1979,1982,4,50.00,1979,1993,15,      3.87,       .12,122, 20. ,100. ,17.1.1992,1992,1.7.1998,1998,-999,0,0,0,0,0,0,0,0,0
1726100,1,26,126,1113501003,COUFFO,LANHOUNTA,BJ,7.100,1.880,   1680.  ,-999,0,0,1951,1984,34,17.97,1951,1984,34,17.98,1951,1984,34,      5.94,       .19,112, 70.6, 96.2,19.2.1992,1992,27.3.1996,1996,-999,0,0,0,0,0,0,0,0,0
1926100,1,26,126,02M/01,PAPAGEIO,BELA VISTA,ST,1.630,7.420,     12.7 ,30,0,0,1988,1989,2,0.00,1980,1989,10,32.11,1980,1989,10,      1.72,       .05,4266, 50. , 91.7,17.1.1992,1992,18.2.1992,1992,-999,0,0,0,0,0,0,0,0,0
1426120,1,26,126,9010155,BANDAMA BLANC,TAWARA,CI,9.740,-5.620,   5400.  ,-999,1426340,0,1979,1982,4,51.89,1979,1982,4,51.06,1979,1982,4,     16.1 ,       .51,94, 50. , 95.8,17.1.1992,1992,27.3.1996,1996,-999,0,0,0,0,0,0,0,0,0
1426140,1,26,126,9011501,BOU,BORON,CI,8.790,-5.880,   3700.  ,-999,1426340,0,1979,1993,15,81.19,1979,1982,4,50.00,1979,1993,15,      9.13,       .29,78, 20. , 94.4,17.1.1992,1992,1.7.1998,1998,-999,0,0,0,0,1,0,0,0,0
1426180,1,26,126,9011009,BANDAMA ROUGE,MANKONO,CI,8.100,-6.300,   6700.  ,-999,1426300,0,1979,1993,15,80.01,1979,1982,4,50.00,1979,1993,15,     21.51,       .68,101, 20. ,100. ,17.1.1992,1992,1.7.1998,1998,-999,0,0,0,0,1,0,0,0,0
1526200,1,26,126,4000001,ANKOBRA,PRESTEA,GH,5.450,-2.117,   4268.  ,20,0,0,1997,2007,11,16.57,1976,1978,3,0.00,1976,2007,32,     15.62,       .49,115, 31.3, 97.5,18.2.1992,1992,25.9.2007,2007,17,0,0,0,0,1,0,0,0,0
1426200,1,26,126,9010109,BANDAMA,BAFECAO,CI,6.060,-4.490,  59500.  ,-999,1426210,0,1979,1993,15,80.01,1979,1982,4,50.00,1979,1993,15,    122.26,      3.86,65, 20. ,100. ,17.1.1992,1992,1.7.1998,1998,-999,0,0,0,0,1,0,0,0,0
1426210,1,26,126,9010118,BANDAMA,BRIMBO,CI,6.000,-4.430,  60200.  ,-999,1426880,0,1993,1993,1,0.00,1982,1983,2,0.00,1982,1993,12,     94.79,      2.99,50, 25. ,100. ,28.2.1992,1992,1.7.1998,1998,-999,0,0,0,0,1,0,0,0,0
1426250,1,26,126,9012505,NZI,ROUTE KATIOLA-DABAKALA,CI,8.240,-4.840,   6650.  ,-999,1426260,0,1979,1993,15,80.01,1979,1982,4,50.00,1979,1993,15,     13.85,       .44,66, 20. ,100. ,17.1.1992,1992,1.7.1998,1998,-999,0,0,0,0,1,0,0,0,0
1426260,1,26,126,9012509,NZI,FETEKRO,CI,7.770,-4.680,  10300.  ,-999,1426350,0,1979,1993,15,80.03,1979,1982,4,50.00,1979,1993,15,     19.51,       .62,60, 20. ,100. ,17.1.1992,1992,1.7.1998,1998,-999,0,0,0,0,1,0,0,0,0
1926300,1,26,126,19B/01,LEMBA,S.JOSE,ST,0.230,6.500,     31.9 ,100,0,0,,,,,1980,1989,10,28.45,1980,1989,10,      1.63,       .05,1607, 50. , 95. ,18.2.1992,1992,18.2.1992,1992,-999,0,0,0,0,0,0,0,0,0
1426300,1,26,126,9011006,BANDAMA ROUGE,BOUAFLE,CI,6.960,-5.760,  19800.  ,-999,1426380,0,1979,1993,15,80.03,1982,1983,2,0.00,1979,1993,15,     43.93,      1.39,70, 26.7,100. ,17.1.1992,1992,1.7.1998,1998,-999,0,0,0,0,1,0,0,0,0
1326300,1,26,126,,WOURI,YABASSI,CM,4.450,9.970,   8026.  ,10,0,0,,,,,1951,1977,27,0.00,1951,1977,27,    308.99,      9.74,1214, 92.6,100. ,18.2.1992,1992,18.2.1992,1992,-999,0,0,0,0,1,0,0,0,0
1526300,1,26,126,5000003,PRA,DABOASI,GH,5.167,-1.633,  22714.  ,0,0,0,1979,2006,28,32.72,1965,1978,14,0.00,1965,2006,42,    193.09,      6.09,268, 71.4, 97.8,18.2.1992,1992,25.9.2007,2007,17,0,0,1,0,1,0,1,0,0
1326301,1,26,126,5511005,MUNGO,MUNDAME,CM,4.570,9.530,   2420.  ,17,0,0,,,,,1952,1977,26,3.68,1952,1977,26,    170.55,      5.38,2223, 92.3, 96.9,24.6.1992,1992,24.6.1992,1992,-999,0,0,0,0,0,0,0,0,0
1426320,1,26,126,9013503,KAN (TRIB. BANDAMA),DIMBOKRO,CI,6.630,-4.790,   4700.  ,-999,1426350,0,1979,1993,15,80.27,1979,1982,4,50.00,1979,1993,15,      6.86,       .22,46, 20. ,100. ,17.1.1992,1992,1.7.1998,1998,-999,0,0,0,0,1,0,0,0,0
1426340,1,26,126,9010139,BANDAMA BLANC,MARABADIASSA,CI,8.110,-5.410,  22000.  ,-999,1426380,0,1979,1982,4,50.10,1979,1982,4,50.00,1979,1982,4,     82.18,      2.59,118, 50. ,100. ,17.1.1992,1992,27.3.1996,1996,-999,0,0,0,0,0,0,0,0,0
1426350,1,26,126,9012515,NZI,ZIENOA,CI,6.000,-4.820,  35000.  ,-999,1426380,0,1979,1993,15,81.58,1982,1983,2,0.00,1979,1993,15,     16.76,       .53,15, 20. ,100. ,17.1.1992,1992,1.7.1998,1998,-999,0,0,0,0,1,0,0,0,0
1426380,1,26,126,9010154,BANDAMA,TIASSALE,CI,5.880,-4.750,  95500.  ,-999,0,0,1970,1996,27,1.40,1954,1983,30,40.00,1954,1996,43,    253.8 ,      8.  ,84,100. , 99. ,28.2.1992,1992,24.3.2004,2004,21,0,1,0,0,1,0,0,0,0
1926500,1,26,126,20C/01,RIO GRANDE,MANUEL CAROCA,ST,0.120,6.650,    103.2 ,12,0,0,1988,1989,2,13.15,1980,1989,10,14.53,1980,1989,10,      6.64,       .21,2028, 70. ,100. ,17.1.1992,1992,18.2.1992,1992,-999,0,0,0,0,0,0,0,0,0
1626500,1,26,126,47342205,SIO,KPEDJI,TG,6.530,1.010,   1810.  ,53,0,0,1978,1982,5,20.04,1978,1982,5,20.00,1978,1982,5,      6.55,       .21,114, 80. ,100. ,16.1.1992,1992,27.3.1996,1996,-999,0,0,0,0,0,0,0,0,0
1326500,1,26,126,,NKAM,MELONG,CM,5.120,10.000,   2280.  ,700,0,0,,,,,1951,1977,27,0.00,1951,1977,27,     70.28,      2.22,972, 96.3,100. ,18.2.1992,1992,18.2.1992,1992,-999,0,0,0,0,0,0,0,0,0
1926550,1,26,126,18C/02,ABADE,BOMBAIM,ST,0.250,6.650,     11.8 ,500,1926800,0,,,,,1980,1989,10,11.30,1980,1989,10,       .1 ,       .  ,254, 70. ,100. ,18.2.1992,1992,18.2.1992,1992,-999,0,0,0,0,0,0,0,0,0
1426600,1,26,126,9351009,AGNEBY,AGBOVILLE,CI,5.970,-4.210,   4600.  ,-999,0,0,1979,1993,15,80.01,1979,1982,4,50.00,1979,1993,15,      5.13,       .16,35, 20. ,100. ,17.1.1992,1992,1.7.1998,1998,-999,0,0,0,0,1,0,0,0,0
1926600,1,26,126,18C/01,OURO,BOA ESPERANCA,ST,0.330,6.630,     13.8 ,400,0,0,,,,,1988,1989,2,0.00,1988,1989,2,       .04,       .  ,95,100. ,100. ,18.2.1992,1992,18.2.1992,1992,-999,0,0,0,0,0,0,0,0,0
1926610,1,26,126,,OURO,C.H.,ST,0.330,6.630,-    999.  ,-999,1926600,0,,,,,1988,1989,2,0.00,1988,1989,2,       .08,       .  ,-999, 50. ,100. ,28.2.1992,1992,28.2.1992,1992,-999,0,0,0,0,0,0,0,0,0
1926630,1,26,126,,AGUA PALITE,MADALENA,ST,0.330,6.230,-    999.  ,-999,0,0,,,,,1988,1989,2,10.53,1988,1989,2,       .  ,       .  ,-999, 50. , 83.3,28.2.1992,1992,28.2.1992,1992,-999,0,0,0,0,0,0,0,0,0
1926650,1,26,126,18D/04,MANUEL JORGE,PIAN PIAN,ST,0.230,6.700,     22.6 ,200,1926800,0,,,,,1985,1989,5,33.90,1985,1989,5,       .06,       .  ,85, 60. , 88.9,18.2.1992,1992,18.2.1992,1992,-999,0,0,0,0,0,0,0,0,0
1926700,1,26,126,18D/03,AGUA GRANDE,LUCIAN COLA,ST,0.330,6.230,     23.2 ,25,0,0,1988,1989,2,0.00,1988,1989,2,10.53,1988,1989,2,       .09,       .  ,121, 50. ,100. ,17.1.1992,1992,18.2.1992,1992,-999,0,0,0,0,0,0,0,0,0
1326701,1,26,126,5401005,LOKOUNDJE,LOLODORF,CM,3.230,10.730,   1150.  ,436,0,0,,,,,1951,1977,27,0.00,1951,1977,27,     28.22,       .89,774, 96.3,100. ,24.6.1992,1992,24.6.1992,1992,-999,0,0,0,0,0,0,0,0,0
1526800,1,26,126,,AYENSU,WINNEBA,GH,5.380,-0.600,   1658.  ,4,0,0,,,,,1976,1978,3,2.78,1976,1978,3,      3.07,       .1 ,58,100. , 97.2,18.2.1992,1992,18.2.1992,1992,-999,0,0,0,0,0,0,0,0,0
1926800,1,26,126,19D/01,ABADE,AGUA-IZE,ST,0.230,6.730,     36.5 ,58,0,0,1988,1989,2,0.00,1980,1989,10,18.10,1980,1989,10,       .92,       .03,791, 60. , 98.6,17.1.1992,1992,18.2.1992,1992,-999,0,0,0,0,0,0,0,0,0
1526801,1,26,126,8000002,AYENSU,OKYEREKO (W/ROAD),GH,5.383,-0.600,   1600.  ,-999,1526800,0,1979,2007,29,37.07,,,,,1979,2007,29,      5.35,       .17,105, 37.9, 91.7,30.9.2003,2003,25.9.2007,2007,17,0,0,0,0,0,0,0,0,0
1326802,1,26,126,5351005,KIENKE,KRIBI,CM,2.930,9.900,   1435.  ,10,0,0,,,,,1955,1977,23,19.47,1955,1977,23,     48.62,      1.53,1068, 69.6,100. ,24.6.1992,1992,24.6.1992,1992,-999,0,0,0,0,0,0,0,0,0
1326901,1,26,126,5381005,LOBE,KRIBI,CM,2.870,9.880,   2305.  ,7,0,0,,,,,1953,1977,25,0.35,1953,1977,25,    103.78,      3.27,1420, 92. , 99.6,24.6.1992,1992,24.6.1992,1992,-999,0,0,0,0,0,0,0,0,0
1427100,1,27,127,9255009,SIEN,MASSADOUGOU,CI,9.100,-7.360,   1320.  ,-999,1427200,0,1979,1993,15,80.03,1979,1982,4,50.00,1979,1993,15,      6.06,       .19,145, 20. ,100. ,17.1.1992,1992,1.7.1998,1998,-999,0,0,0,0,0,0,0,0,0
1427130,1,27,127,9254802,TIENBA,DIOULATIEDOUGOU,CI,9.020,-7.240,   2790.  ,-999,1427200,0,1979,1993,15,80.32,1979,1982,4,50.00,1979,1993,15,     15.6 ,       .49,176, 20. ,100. ,17.1.1992,1992,1.7.1998,1998,-999,0,0,0,0,1,0,0,0,0
1427150,1,27,127,9251603,BOA,VIALADOUGOU,CI,8.370,-7.200,   5800.  ,-999,1427350,0,1979,1993,15,80.01,1979,1982,4,50.00,1979,1993,15,     33.16,      1.05,180, 20. ,100. ,17.1.1992,1992,1.7.1998,1998,-999,0,0,0,0,1,0,0,0,0
1427160,1,27,127,9250116,SASSANDRA,N'GOLODOUGOU,CI,8.380,-7.700,   5200.  ,-999,1427200,0,1979,1982,4,50.17,1979,1982,4,50.00,1979,1982,4,     70.64,      2.23,428, 50. ,100. ,17.1.1992,1992,27.3.1996,1996,-999,0,0,0,0,0,0,0,0,0
1427200,1,27,127,9250104,SASSANDRA,DABALA,CI,8.400,-7.130,  16800.  ,-999,1427350,0,1979,1993,15,80.03,1979,1982,4,50.00,1979,1993,15,    120.09,      3.79,225, 20. ,100. ,17.1.1992,1992,1.7.1998,1998,-999,0,0,0,0,1,0,0,0,0
1427250,1,27,127,9251303,BAFING (TRIB. SASSANDRA),BADALA,CI,7.850,-7.540,   6300.  ,-999,1427350,0,1979,1982,4,50.10,1979,1982,4,50.00,1979,1982,4,     69.5 ,      2.19,348, 50. ,100. ,17.1.1992,1992,27.3.1996,1996,-999,0,0,0,0,0,0,0,0,0
1427350,1,27,127,9250109,SASSANDRA,SEMIEN,CI,7.690,-7.060,  28800.  ,-999,1427450,0,1979,1993,15,80.01,1982,1983,2,0.00,1979,1993,15,    186.84,      5.89,205, 26.7,100. ,17.1.1992,1992,1.7.1998,1998,-999,0,0,0,0,1,0,0,0,0
1427370,1,27,127,9254002,KO,LOGOUALE,CI,7.090,-7.530,   1530.  ,-999,1427400,0,1979,1993,15,80.60,1979,1982,4,50.00,1979,1993,15,     10.45,       .33,215, 20. , 97.2,17.1.1992,1992,1.7.1998,1998,-999,0,0,0,0,0,0,0,0,0
1427400,1,27,127,9252203,NZO,GUIGLO,CI,6.540,-7.480,   6400.  ,-999,1427500,0,1979,1979,1,0.00,1979,1979,1,0.00,1979,1979,1,     86.81,      2.74,428,100. ,100. ,17.1.1992,1992,27.3.1996,1996,-999,0,0,0,0,0,0,0,0,0
1427450,1,27,127,9250106,SASSANDRA,GUESSABO,CI,6.740,-7.000,  35000.  ,-999,1427500,0,1979,1979,1,0.00,1979,1979,1,0.00,1979,1979,1,    295.96,      9.33,267,100. ,100. ,17.1.1992,1992,27.3.1996,1996,-999,0,0,0,0,0,0,0,0,0
1427500,1,27,127,9250115,SASSANDRA,SOUBRE,CI,5.760,-6.600,  62000.  ,-999,0,0,1970,1996,27,9.33,1979,1982,4,50.00,1970,1996,27,    323.75,     10.21,165, 85.2, 97.5,27.3.1996,1996,18.3.1999,1999,-999,0,1,0,0,1,0,1,0,0
1427600,1,27,127,9251503,DAVO,DAKPADOU,CI,5.260,-6.060,   6600.  ,-999,0,0,1979,1993,15,80.14,1979,1982,4,50.00,1979,1993,15,     33.19,      1.05,159, 20. ,100. ,17.1.1992,1992,1.7.1998,1998,-999,0,0,0,0,1,0,0,0,0
1428100,1,28,128,9042506,KOLONKOKO,NASSIAN,CI,9.370,-4.500,   1160.  ,-999,1428300,0,1979,1982,4,51.88,1979,1982,4,52.08,1979,1982,4,      1.98,       .06,54, 50. , 95.8,17.1.1992,1992,27.3.1996,1996,-999,0,0,0,0,0,0,0,0,0
1928130,1,28,128,,LERABA OCCIDENTAL,FOURKOURA,BF,10.300,-5.380,   2550.  ,-999,1928490,0,,,,,1974,1984,11,30.89,1974,1984,11,      6.89,       .22,85, 63.6, 94. ,18.2.1992,1992,18.2.1992,1992,-999,0,0,0,0,1,0,0,0,0
1428200,1,28,128,9040110,COMOE,KAFOLO,CI,9.590,-4.290,  21300.  ,-999,1428300,0,1979,1993,15,80.14,1979,1982,4,50.00,1979,1993,15,     49.3 ,      1.56,73, 20. ,100. ,17.1.1992,1992,1.7.1998,1998,-999,0,0,0,0,1,0,0,0,0
1928250,1,28,128,,LERABA ORIENTAL,DOUNA,BF,10.630,-5.120,    820.  ,296,1928490,0,,,,,1970,1985,16,4.69,1970,1985,16,      2.57,       .08,99, 93.8, 96.7,18.2.1992,1992,18.2.1992,1992,-999,0,0,0,0,0,0,0,0,0
1428250,1,28,128,9042406,IRINGOU,TEHINI,CI,9.670,-4.120,   2600.  ,-999,1428300,0,1979,1982,4,50.03,1979,1982,4,50.00,1979,1982,4,      3.84,       .12,47, 50. ,100. ,17.1.1992,1992,27.3.1996,1996,-999,0,0,0,0,0,0,0,0,0
1428300,1,28,128,9040121,COMOE,SEREBOU,CI,7.950,-3.940,  48700.  ,-999,1428400,0,1979,1993,15,82.90,1982,1983,2,5.00,1979,1993,15,     91.17,      2.88,59, 20. ,100. ,17.1.1992,1992,1.7.1998,1998,-999,0,0,0,0,1,0,0,0,0
1928370,1,28,128,,LERABA ORIENTAL,NIOFILA,BF,10.680,-5.100,    710.  ,303,1828250,0,,,,,1980,1984,5,0.00,1980,1984,5,      1.23,       .04,55, 80. ,100. ,18.2.1992,1992,18.2.1992,1992,-999,0,0,0,0,0,0,0,0,0
1428400,1,28,128,9040109,COMOE,ANIASSUE,CI,6.620,-3.720,  67400.  ,-999,1428500,0,1979,1994,16,1.71,1980,1994,15,4.44,1979,1994,16,    120.19,      3.79,56,100. , 99. ,17.1.1992,1992,21.11.1996,1996,-999,0,0,0,0,1,0,0,0,0
1928490,1,28,128,,LERABA,YENDERE,BF,10.170,-5.070,   5930.  ,264,1428100,0,1977,1977,1,0.00,1955,1989,35,1.93,1955,1989,35,     31.6 ,      1.  ,168, 97.1, 98. ,10.1.1992,1992,18.2.1992,1992,-999,0,0,0,0,1,0,0,0,0
1428500,1,28,128,9040112,COMOE,MBASSO,CI,6.290,-3.490,  69900.  ,-999,0,0,1970,1996,27,8.23,1979,1982,4,50.00,1970,1996,27,    128.6 ,      4.06,58, 85.2, 99.6,27.3.1996,1996,18.3.1999,1999,-999,0,1,0,0,1,0,1,0,0
1928625,1,28,128,,COMOE,KARFIGUELA,BF,10.730,-4.830,    812.  ,-999,1928745,0,,,,,1955,1986,32,31.51,1955,1986,32,      4.21,       .13,163, 56.3, 94. ,18.2.1992,1992,18.2.1992,1992,-999,0,0,0,0,0,0,0,0,0
1928745,1,28,128,20040110,COMOE,DIARABAKOKO,BF,10.480,-4.780,   2350.  ,257,1928865,0,1977,1983,7,36.62,1956,1985,30,16.99,1956,1985,30,     11.21,       .35,150, 70. , 98. ,10.1.1992,1992,18.2.1992,1992,-999,0,0,0,0,0,0,0,0,0
1928865,1,28,128,,COMOE,FOLONZO,BF,9.850,-4.620,   9480.  ,-999,1428200,0,1977,1977,1,4.38,1973,1985,13,0.64,1973,1985,13,     17.27,       .55,57,100. , 99.4,10.1.1992,1992,18.2.1992,1992,-999,0,0,0,0,1,0,0,0,0
1530100,1,30,130,3000002,TANO,ALANDA,GH,5.120,-2.750,  15800.  ,2,0,0,1975,1978,4,8.92,1965,1978,14,1.23,1965,1978,14,    145.18,      4.58,290, 92.9, 98.7,18.2.1992,1992,30.9.2003,2003,17,0,0,0,0,1,0,1,0,0
1931025,1,31,131,,BLACK VOLTA,BANZO,BF,11.320,-4.820,   2816.  ,323,1931070,0,,,,,1956,1986,31,9.19,1956,1986,31,     11.18,       .35,125, 87.1, 97.8,18.2.1992,1992,18.2.1992,1992,-999,0,0,0,0,1,0,0,0,0
1531050,1,31,131,1006002,BLACK VOLTA,LAWRA,GH,10.633,-2.917,  93820.  ,224,1931400,0,1975,2007,33,37.65,1951,1974,24,0.00,1951,2007,57,     87.82,      2.77,30, 70.2, 97.1,28.2.1992,1992,25.9.2007,2007,17,0,0,0,0,1,0,0,0,0
1931055,1,31,131,,BLACK VOLTA,GUENA,BF,11.080,-4.680,    800.  ,383,1931025,0,,,,,1962,1983,22,66.03,1962,1983,22,      3.34,       .11,132, 27.3, 95.8,18.2.1992,1992,18.2.1992,1992,-999,0,0,0,0,0,0,0,0,0
1931070,1,31,131,20270232,BLACK VOLTA,SAMANDENI,BF,11.470,-4.470,   4580.  ,296,1931180,0,1977,1983,7,6.65,1955,1987,33,1.78,1955,1987,33,     14.4 ,       .45,99, 97. , 99.2,10.1.1992,1992,18.2.1992,1992,-999,0,0,0,0,1,0,0,0,0
1931085,1,31,131,,KOU,NASSO,BF,11.200,-4.430,    406.  ,-999,1931090,0,,,,,1961,1974,14,6.25,1961,1974,14,      4.65,       .15,361, 71.4, 97.5,18.2.1992,1992,18.2.1992,1992,-999,0,0,0,0,0,0,0,0,0
1931090,1,31,131,,KOU,BADARA,BF,11.370,-4.370,    971.  ,-999,1931070,0,,,,,1955,1985,31,56.91,1955,1985,31,      5.05,       .16,164, 41.9, 94.2,18.2.1992,1992,18.2.1992,1992,-999,0,0,0,0,0,0,0,0,0
1631100,1,31,131,47271106,OTI,MANGO,TG,10.300,0.470,  35650.  ,108,1531800,0,,,,,1953,1974,22,0.00,1953,1974,22,    134.38,      4.24,119, 90.9,100. ,28.2.1992,1992,28.2.1992,1992,-999,0,0,0,0,1,0,0,0,0
1531100,1,31,131,1006001,BLACK VOLTA,BAMBOI,GH,8.150,-2.033, 134200.  ,35,1431700,0,1975,2007,33,56.51,1950,1974,25,0.00,1950,2007,58,    280.95,      8.86,66, 58.6, 98.3,28.2.1992,1992,25.9.2007,2007,17,0,0,0,0,1,0,1,0,0
1931160,1,31,131,20271202,BOUGOURIBA,DAN,BF,10.920,-3.650,   6345.  ,275,1931340,0,1977,1983,7,8.14,1970,1985,16,18.18,1970,1985,16,      8.55,       .27,42, 68.8, 97. ,10.1.1992,1992,18.2.1992,1992,-999,0,0,0,0,1,0,0,0,0
1931180,1,31,131,,BLACK VOLTA,NWOKUY,BF,12.520,-3.550,  14800.  ,-999,1931190,0,,,,,1956,1988,33,0.00,1956,1988,33,     26.18,       .83,56, 97. , 99.5,18.2.1992,1992,18.2.1992,1992,-999,0,0,0,0,1,0,0,0,0
1931190,1,31,131,,BLACK VOLTA,KOURI,BF,12.730,-3.480,  20000.  ,248,1931445,0,,,,,1955,1982,28,31.08,1955,1982,28,     29.07,       .92,46, 64.3, 97.7,18.2.1992,1992,18.2.1992,1992,-999,0,0,0,0,1,0,0,0,0
1631200,1,31,131,47274803,KOUMANGOU,KOUMANGOU,TG,10.200,0.450,   6730.  ,120,1531800,0,,,,,1959,1974,16,0.00,1959,1974,16,     62.42,      1.97,292, 87.5,100. ,28.2.1992,1992,28.2.1992,1992,-999,0,0,0,0,1,0,0,0,0
1931295,1,31,131,,BLACK VOLTA,MANIMENSO,BF,12.750,-3.400,  20000.  ,247,1931445,0,,,,,1956,1983,28,0.00,1956,1983,28,     24.54,       .77,39,100. , 99.4,18.2.1992,1992,18.2.1992,1992,-999,0,0,0,0,1,0,0,0,0
1531300,1,31,131,1007002,PRU,PRANG,GH,7.983,-0.883,   6355.  ,41,1531700,0,1998,2007,10,2.20,1957,1967,11,0.00,1957,2007,51,     40.61,      1.28,202, 33.3, 99. ,28.2.1992,1992,25.9.2007,2007,17,0,0,0,0,1,0,0,0,0
1431300,1,31,131,9270112,BLACK VOLTA,VONKORO,CI,9.190,-2.710, 111500.  ,-999,1531100,0,1979,1993,15,80.82,1979,1982,4,50.00,1979,1993,15,    114.93,      3.62,33, 20. , 94.4,17.1.1992,1992,1.7.1998,1998,-999,0,0,0,0,1,0,0,0,0
1931340,1,31,131,,BOUGOURIBA,DIEBOUGOU,BF,10.930,-3.170,  12200.  ,240,1531050,0,,,,,1963,1986,24,9.47,1963,1986,24,     24.7 ,       .78,64, 79.2, 97.8,18.2.1992,1992,18.2.1992,1992,-999,0,0,0,0,1,0,0,0,0
1931370,1,31,131,,BLACK VOLTA,BOROMO,BF,11.780,-2.920,  37140.  ,238,1931460,0,,,,,1955,1991,37,0.70,1955,1991,37,     32.88,      1.04,28, 97.3, 98.8,18.2.1992,1992,18.2.1992,1992,-999,0,0,0,0,1,0,1,0,0
1731400,1,31,131,1112702003,PENDJARI,PORGA,BJ,10.200,0.970,  22280.  ,-999,1631100,0,1952,1992,41,29.08,1952,1992,41,23.41,1952,1992,41,     60.01,      1.89,85, 68.3, 95.2,19.2.1992,1992,27.3.1996,1996,-999,0,0,0,0,1,0,1,0,0
1931400,1,31,131,,BLACK VOLTA,DAPOLA,BF,10.570,-2.920,  66540.  ,228,1931475,0,1977,1977,1,0.00,1951,1991,41,0.63,1951,1991,41,    101.86,      3.21,48, 97.6, 99. ,10.1.1992,1992,18.2.1992,1992,-999,0,0,0,0,1,0,1,0,0
1931415,1,31,131,,BAMBASSOU,BATIE,BF,9.980,-2.900,   5630.  ,230,1931475,0,,,,,1971,1985,15,2.86,1971,1985,15,     12.51,       .39,70, 93.3, 97. ,18.2.1992,1992,18.2.1992,1992,-999,0,0,0,0,1,0,0,0,0
1931420,1,31,131,,WHITE VOLTA,RAMBO,BF,13.600,-2.070,   2375.  ,-999,1931580,0,,,,,1983,1986,4,0.00,1983,1986,4,      1.19,       .04,16,100. ,100. ,18.2.1992,1992,18.2.1992,1992,-999,0,0,0,0,0,0,0,0,0
1531420,1,31,131,1003001,KULPAWN,YAGABA,GH,10.230,-1.283,  10600.  ,126,1531450,0,1975,2007,33,73.29,1958,1974,17,3.65,1958,2007,50,     32.22,      1.02,96, 38. , 98.7,28.2.1992,1992,25.9.2007,2007,17,0,0,0,0,1,0,1,0,0
1531430,1,31,131,1003002,SISILI,WIASI,GH,10.330,-1.350,   9500.  ,126,1531450,0,1975,2007,33,70.19,1962,1974,13,0.00,1962,2007,46,     21.04,       .66,70, 41.3, 96.9,28.2.1992,1992,25.9.2007,2007,17,0,0,0,0,1,0,0,0,0
1931445,1,31,131,,BLACK VOLTA,TENADO,BF,12.170,-2.820,  23700.  ,-999,1931370,0,,,,,1976,1985,10,0.00,1976,1985,10,     18.4 ,       .58,24, 90. ,100. ,18.2.1992,1992,18.2.1992,1992,-999,0,0,0,0,1,0,0,0,0
1731450,1,31,131,1112704003,MAGOU,TIELE,BJ,10.720,1.200,    836.  ,-999,1731400,0,1961,1992,32,45.69,1961,1992,32,45.24,1961,1992,32,      5.2 ,       .16,196, 34.4, 97.7,19.2.1992,1992,27.3.1996,1996,-999,0,0,0,0,0,0,0,0,0
1531450,1,31,131,1001003,WHITE VOLTA,NAWUNI,GH,9.700,-1.080,  92950.  ,96,1531700,0,1975,2007,33,10.81,1953,1974,22,0.00,1953,2007,55,    243.66,      7.68,83, 85.5, 98.9,28.2.1992,1992,25.9.2007,2007,17,0,0,1,0,1,0,1,0,0
1931460,1,31,131,,BLACK VOLTA,OUESSA,BF,11.020,-2.820,  50820.  ,-999,1531050,0,,,,,1969,1986,18,16.67,1969,1986,18,     43.53,      1.37,27, 61.1, 96.2,18.2.1992,1992,18.2.1992,1992,-999,0,0,0,0,1,0,0,0,0
1931475,1,31,131,,BLACK VOLTA,NOUMBIEL,BF,9.680,-2.770,  79700.  ,214,1431300,0,,,,,1975,1985,11,27.20,1975,1985,11,     81.97,      2.59,32, 45.5, 95. ,18.2.1992,1992,18.2.1992,1992,-999,0,0,0,0,1,0,0,0,0
1631480,1,31,131,47273905,KARA,KPESSIDE,TG,9.620,0.950,   2787.  ,180,1531800,0,,,,,1962,1974,13,0.00,1962,1974,13,     36.59,      1.15,414, 92.3,100. ,28.2.1992,1992,28.2.1992,1992,-999,0,0,0,0,1,0,0,0,0
1631500,1,31,131,47273910,KARA,LAMA KARA,TG,9.530,1.180,   1560.  ,270,1631480,0,1978,1982,5,21.80,1978,1982,5,21.67,1978,1982,5,     19.13,       .6 ,387, 80. , 97.9,16.1.1992,1992,27.3.1996,1996,-999,0,0,0,0,0,0,0,0,0
1931535,1,31,131,,VOLTA ROUGE,SAKOINSE,BF,12.200,-2.020,   1210.  ,297,1931565,0,,,,,1970,1985,16,29.69,1970,1985,16,       .45,       .01,12, 56.3, 98.1,18.2.1992,1992,18.2.1992,1992,-999,0,0,0,0,0,0,0,0,0
1931550,1,31,131,,SISILI,NEBBOU,BF,11.280,-1.930,   3240.  ,-999,1531430,0,,,,,1974,1986,13,14.74,1974,1986,13,      1.42,       .05,14, 69.2,100. ,18.2.1992,1992,18.2.1992,1992,-999,0,0,0,0,1,0,0,0,0
1531550,1,31,131,1001001,WHITE VOLTA,PWALAGU,GH,10.583,-0.850,  63350.  ,123,1531450,0,1975,2007,33,57.47,1951,1974,24,0.00,1951,2007,57,    119.11,      3.76,59, 54.4, 99.2,28.2.1992,1992,25.9.2007,2007,17,0,0,0,0,1,0,1,0,0
1931565,1,31,131,20270305,VOLTA ROUGE,DAKAYE,BF,11.780,-1.600,   4540.  ,270,1931695,0,1977,1983,7,1.68,1975,1986,12,1.41,1975,1986,12,      2.45,       .08,17,100. , 98.6,10.1.1992,1992,18.2.1992,1992,-999,0,0,0,0,1,0,0,0,0
1931580,1,31,131,20270122,WHITE VOLTA,YILOU,BF,13.000,-1.550,  10100.  ,280,1931710,0,1977,1982,6,1.19,1973,1982,10,4.35,1973,1982,10,      2.7 ,       .09,8, 80. ,100. ,10.1.1992,1992,18.2.1992,1992,-999,0,0,0,0,1,0,0,0,0
1531600,1,31,131,1001008,WHITE VOLTA,YARUGU,GH,10.980,-0.400,  41550.  ,170,1531550,0,1975,2007,33,69.43,1966,1974,9,0.00,1966,2007,42,     70.23,      2.22,53, 35.7, 98.9,28.2.1992,1992,25.9.2007,2007,17,0,0,0,0,1,0,0,0,0
1531650,1,31,131,1002001,VOLTA ROUGE,NANGODI,GH,10.867,-0.617,  11570.  ,184,1531550,0,1975,2007,33,88.62,1958,1974,17,0.00,1958,2007,50,     22.43,       .71,61, 36. , 99.1,28.2.1992,1992,25.9.2007,2007,17,0,0,0,0,1,0,1,0,0
1531680,1,31,131,1008004,DAKA,EKUMDIPE,GH,8.470,-0.220,   6810.  ,-999,1531700,0,1975,1996,22,66.53,1963,1974,12,0.00,1963,1996,34,     42.92,      1.35,199, 44.1, 97.2,28.2.1992,1992,25.9.2007,2007,17,0,0,0,0,1,0,0,0,0
1931695,1,31,131,,VOLTA ROUGE,NOBERE,BF,11.430,-1.180,   7600.  ,254,1531650,0,,,,,1965,1990,26,22.62,1965,1990,26,      4.94,       .16,21, 69.2, 98.1,18.2.1992,1992,18.2.1992,1992,-999,0,0,0,0,1,0,0,0,0
1531700,1,31,131,1000009,VOLTA,SENCHI(HALCROW),GH,6.200,0.100, 394100.  ,5,0,0,,,,,1936,1984,49,3.24,1936,1984,49,   1088.88,     34.34,87, 91.8, 99.6,18.2.1992,1992,24.3.2004,2004,21,0,1,1,0,1,0,1,0,0
1931710,1,31,131,,WHITE VOLTA,BISSIGA,BF,12.750,-1.150,  16965.  ,-999,1931725,0,,,,,1976,1985,10,5.83,1976,1985,10,      4.38,       .14,8, 90. , 98.1,18.2.1992,1992,18.2.1992,1992,-999,0,0,0,0,1,0,0,0,0
1931725,1,31,131,,WHITE VOLTA,WAYEN,BF,12.380,-1.080,  20880.  ,-999,1931770,0,,,,,1955,1987,33,27.41,1955,1987,33,      7.44,       .24,11, 72.7, 97.9,18.2.1992,1992,18.2.1992,1992,-999,0,0,0,0,1,0,1,0,0
1931770,1,31,131,,WHITE VOLTA,NIAOGHO,BF,11.770,-0.750,  30200.  ,-999,1931785,0,,,,,1964,1985,22,18.32,1964,1985,22,     22.19,       .7 ,23, 77.3, 97.1,18.2.1992,1992,18.2.1992,1992,-999,0,0,0,0,1,0,0,0,0
1931785,1,31,131,,WHITE VOLTA,YAKALA,BF,11.350,-0.700,  33000.  ,-999,1931790,0,1977,1977,1,11.78,1956,1984,29,16.76,1956,1984,29,     30.75,       .97,29, 75.9, 99.2,10.1.1992,1992,18.2.1992,1992,-999,0,0,0,0,1,0,0,0,0
1931790,1,31,131,,WHITE VOLTA,BAGRE,BF,11.250,-0.330,  33120.  ,210,1531600,0,,,,,1974,1990,17,6.37,1974,1990,17,     35.91,      1.13,34, 94.1, 95.3,28.2.1992,1992,28.2.1992,1992,-999,0,0,0,0,1,0,1,0,0
1531800,1,31,131,1010003,OTI,SABARI,GH,9.280,0.230,  58670.  ,83,1531700,0,1995,2007,13,13.62,1959,1974,16,0.00,1959,2007,49,    369.36,     11.65,199, 46.9, 97.8,28.2.1992,1992,25.9.2007,2007,17,0,0,0,0,1,0,1,0,0
1931815,1,31,131,,TCHERBO,BAGRE,BF,11.600,-1.570,    972.  ,-999,1931695,0,,,,,1978,1986,9,30.56,1978,1986,9,       .78,       .02,25, 55.6, 86.7,18.2.1992,1992,18.2.1992,1992,-999,0,0,0,0,0,0,0,0,0
1931845,1,31,131,,NOUHAO,BITTOU,BF,11.180,-0.280,   4050.  ,-999,1931790,0,,,,,1974,1985,12,16.67,1974,1985,12,     10.27,       .32,80, 66.7, 97.9,18.2.1992,1992,18.2.1992,1992,-999,0,0,0,0,1,0,0,0,0
1931860,1,31,131,,KOMPIENGA,TAGOU,BF,11.150,0.620,   5640.  ,-999,1631800,0,,,,,1980,1987,8,0.00,1980,1987,8,      9.5 ,       .3 ,53,100. , 97.9,18.2.1992,1992,18.2.1992,1992,-999,0,0,0,0,0,0,0,0,0
1931880,1,31,131,20278010,SINGOU,SAMBOALI,BF,11.280,1.020,   4560.  ,-999,1731400,0,1978,1983,6,15.34,1978,1983,6,11.11,1978,1983,6,      3.45,       .11,24, 83.3, 96.7,10.1.1992,1992,27.3.1996,1996,-999,0,0,0,0,0,0,0,0,0
1931890,1,31,131,,DOUDODO,ARLY,BF,11.530,1.420,   6050.  ,-999,1731400,0,,,,,1978,1986,9,27.88,1978,1986,9,      4.98,       .16,26, 44.4, 91.7,18.2.1992,1992,18.2.1992,1992,-999,0,0,0,0,0,0,0,0,0
1931905,1,31,131,,PENDJARI,ARLY,BF,11.430,1.570,  10960.  ,-999,1731400,0,,,,,1978,1985,8,36.96,1978,1985,8,      6.35,       .2 ,18, 25. , 91.7,18.2.1992,1992,18.2.1992,1992,-999,0,0,0,0,0,0,0,0,0
1732100,1,32,132,1114000107,MONO,ATHIEME,BJ,6.920,1.670,  21575.  ,-999,0,0,1944,2007,64,35.78,1944,1992,49,28.92,1944,2007,64,    114.89,      3.62,168, 48.4, 97. ,19.2.1992,1992,22.12.2010,2010,-999,0,0,0,1,1,0,1,0,0
1632500,1,32,132,,MONO,CORREKOPE,TG,7.800,1.300,    995.  ,148,1732100,0,,,,,1966,1975,10,16.52,1966,1975,10,     55.49,      1.75,1759, 70. ,100. ,18.2.1992,1992,18.2.1992,1992,-999,0,0,0,0,0,0,0,0,0
1733100,1,33,133,1114500105,OUEME,PONT DE BETEROU,BJ,9.200,2.670,  10326.  ,-999,1733300,0,1952,1992,41,20.08,1952,1992,41,19.38,1952,1992,41,     52.52,      1.66,160, 73.2, 97.8,19.2.1992,1992,27.3.1996,1996,-999,0,0,0,0,1,0,1,0,0
1733200,1,33,133,1114501002,ZOU,ATCHERIGBE,BJ,7.530,2.030,   6950.  ,-999,1733400,0,1951,1992,42,24.96,1951,1992,42,24.25,1951,1992,42,     25.07,       .79,114, 66.7, 98.8,24.2.1992,1992,27.3.1996,1996,-999,0,0,0,0,1,0,0,0,0
1733300,1,33,133,1114500119,OUEME,PONT DE SAVE,BJ,8.000,2.420,  23600.  ,-999,1733500,0,1951,1992,42,19.60,1951,1992,42,19.44,1951,1992,42,    110.4 ,      3.48,148, 73.8, 99.5,19.2.1992,1992,27.3.1996,1996,-999,0,0,0,0,1,0,0,0,0
1733320,1,33,133,1114501103,OKPARA,KABOUA,BJ,8.250,2.720,   9600.  ,-999,1733500,0,1951,1992,42,18.02,1951,1992,42,17.84,1951,1992,42,     30.61,       .97,101, 78.6, 99.5,19.2.1992,1992,27.3.1996,1996,-999,0,0,0,0,1,0,0,0,0
1733400,1,33,133,1114501005,ZOU,DOME,BJ,7.120,2.330,   8210.  ,-999,1733600,0,1952,1992,41,28.53,1952,1992,41,26.45,1952,1992,41,     23.54,       .74,90, 65.9, 99.1,24.2.1992,1992,27.3.1996,1996,-999,0,0,0,0,1,0,0,0,0
1733500,1,33,133,1114500117,OUEME,SAGON,BJ,7.170,2.430,  37980.  ,-999,1733600,0,1951,1984,34,19.17,1951,1984,34,15.91,1951,1984,34,    162.33,      5.12,135, 73.5, 96.3,24.2.1992,1992,27.3.1996,1996,-999,0,0,0,0,1,0,0,0,0
1733600,1,33,133,1114500107,OUEME,BONOU,BJ,6.900,2.450,  46990.  ,-999,0,0,1948,2007,60,22.33,1948,1992,45,24.62,1948,2007,60,    188.47,      5.94,126, 73.3, 98.5,24.2.1992,1992,22.12.2010,2010,-999,0,1,0,1,1,0,1,0,0
1733700,1,33,133,1114501206,SO,SO-AWA,BJ,6.500,2.400,-    999.  ,-999,0,0,1952,1980,29,23.35,1952,1980,29,23.12,1952,1980,29,     56.08,      1.77,-999, 62.1, 98.1,24.2.1992,1992,27.3.1996,1996,-999,0,0,0,0,0,0,0,0,0
1134020,1,34,134,27152007,SANKARANI,GUELELINKORO,ML,11.150,-8.550,  23300.  ,-999,1134050,0,1971,1979,9,2.30,1971,1979,9,1.94,1971,1979,9,    263.36,      8.31,356, 88.9, 99. ,29.1.1992,1992,27.3.1996,1996,-999,0,0,0,0,0,0,0,0,0
1134030,1,34,134,27150110,NIGER,BANANKORO,ML,11.683,-8.667,  71750.  ,329,1134100,0,1967,2001,35,20.68,1967,1992,26,48.36,1967,2001,35,    805.34,     25.4 ,354, 57.1, 99.6,29.1.1992,1992,19.8.2003,2003,16,0,0,0,0,1,0,0,0,0
1134040,1,34,134,27152005,SANKARANI,GOUALA,ML,11.970,-8.230,  35300.  ,-999,1134100,0,1954,1990,37,54.12,1954,1990,37,38.10,1954,1990,37,    289.05,      9.12,258, 43.2, 94.8,29.1.1992,1992,26.6.1992,1992,-999,0,0,1,0,1,0,1,0,0
1234050,1,34,134,32151806,GAROUOL,DOLBEL,NE,14.620,0.300,   7500.  ,-999,1234080,0,1961,1988,28,9.05,1961,1988,28,8.84,1961,1988,28,      9.  ,       .28,38, 85.7, 99.7,17.1.1992,1992,27.3.1996,1996,-999,0,0,0,0,1,0,0,0,0
1134050,1,34,134,27152010,SANKARANI,SELINGUE,ML,11.580,-8.170,  34200.  ,-999,1134040,0,1964,1992,29,36.90,1964,2012,49,45.83,1964,2012,49,    281.42,      8.88,259, 53.1,100. ,29.1.1992,1992,6.9.2012,2012,16,0,0,1,0,1,0,0,0,0
1134060,1,34,134,27153002,OUASSOULOU,YANFOLILA,ML,11.130,-8.200,   4100.  ,-999,1134050,0,1971,1979,9,53.93,1971,1979,9,51.92,1971,1979,9,     23.26,       .73,179, 22.2, 83.3,29.1.1992,1992,27.3.1996,1996,-999,0,0,0,0,0,0,0,0,0
1234080,1,34,134,32151803,GOROUOL,ALCONGUI,NE,14.750,0.600,  44900.  ,227,1234090,0,1961,1988,28,20.67,1957,1989,33,6.67,1957,1989,33,     10.8 ,       .34,8, 84.8, 99.7,17.1.1992,1992,14.9.1994,1994,-999,0,0,0,0,1,0,1,0,0
1134080,1,34,134,27162020,BAOULE (TRIB. NIGER),MADINA DIASSA,ML,10.800,-7.670,   7900.  ,-999,1134110,0,1971,1992,22,50.19,1971,1992,22,50.39,1971,1992,22,     42.28,      1.33,169, 40.9, 96.3,29.1.1992,1992,27.3.1996,1996,-999,0,0,0,0,1,0,0,0,0
1234090,1,34,134,32150117,NIGER,KANDADJI,NE,14.617,0.983,-    999.  ,-999,1234150,0,1975,2002,28,8.73,1975,2012,38,63.47,1975,2012,38,    750.44,     23.67,-999, 63.2, 96.9,23.6.1992,1992,6.9.2012,2012,16,0,0,1,0,0,0,0,0,0
1634100,1,34,134,,TINKISSO,DABOLA,GN,10.750,-11.120,   1260.  ,-999,1634600,0,1964,1975,12,16.22,1964,1975,12,16.06,1964,1975,12,     15.42,       .49,386, 66.7, 99. ,17.1.1992,1992,27.3.1996,1996,-999,0,0,0,0,0,0,0,0,0
1134100,1,34,134,27150142,NIGER,KOULIKORO,ML,12.867,-7.550, 120000.  ,290,1134100,0,1907,2006,100,0.83,1907,2012,106,16.43,1907,2012,106,   1357.14,     42.8 ,357, 94.3, 99.8,29.1.1992,1992,6.9.2012,2012,16,0,0,1,0,1,0,1,0,0
1234100,1,34,134,32151206,DARGOL,TERA,NE,14.020,0.750,   2750.  ,-999,1234100,0,1961,1987,27,20.27,1961,1987,27,20.25,1961,1987,27,      2.85,       .09,33, 74.1,100. ,17.1.1992,1992,27.3.1996,1996,-999,0,0,0,0,1,0,0,0,0
1834101,1,34,134,1331500004,NIGER,LOKOJA,NG,7.800,6.767,-    999.  ,-999,0,0,1970,2006,37,12.03,2007,2012,6,44.44,1970,2012,43,   5055.41,    159.43,-999, 67.4, 98.9,20.8.2003,2003,6.9.2012,2012,16,0,0,0,0,0,0,1,0,0
1834110,1,34,134,1331500034,NIGER,YIDERE BODE,NG,11.383,4.133,-    999.  ,-999,1834101,0,1984,2002,19,9.25,2007,2012,6,43.64,1984,2012,29,   1015.23,     32.02,-999, 55.2, 97.9,20.8.2003,2003,6.9.2012,2012,16,0,0,1,0,0,0,0,0,0
1134110,1,34,134,27162005,BAOULE (TRIB. NIGER),BOUGOUNI,ML,11.400,-7.450,  15700.  ,-999,1134200,0,1956,1992,37,30.47,1956,2012,57,51.57,1956,2012,57,     98.59,      3.11,198, 40.4, 98.9,29.1.1992,1992,6.9.2012,2012,16,0,0,0,0,1,0,1,0,0
1234120,1,34,134,32151203,DARGOL,KAKASSI,NE,13.850,1.470,   6940.  ,198,1234150,0,1957,1988,32,14.59,1957,1988,32,14.10,1957,1988,32,      5.25,       .17,24, 81.3, 97.1,17.1.1992,1992,27.3.1996,1996,-999,0,0,0,0,1,0,0,0,0
1234130,1,34,134,32152403,SIRBA,GARBE-KOUROU,NE,13.733,1.617,  38750.  ,287,1234150,0,1956,2002,47,23.67,1956,2010,55,54.59,1956,2010,55,     23.33,       .74,19, 56.4, 98.9,23.6.1992,1992,6.9.2012,2012,16,0,0,0,0,1,0,0,0,0
1234150,1,34,134,32150127,NIGER,NIAMEY,NE,13.520,2.080, 700000.  ,176,1234250,0,1929,2006,78,13.33,1929,2012,84,34.83,1929,2012,84,    891.11,     28.1 ,40, 83.3, 98.9,17.1.1992,1992,6.9.2012,2012,16,0,0,1,0,1,0,1,0,0
1134150,1,34,134,27161510,BANIFING,KOLONDIEBA,ML,11.070,-6.850,   3050.  ,-999,1134310,0,1972,1992,21,60.23,1972,1992,21,58.73,1972,1992,21,      7.61,       .24,79, 33.3, 92.9,29.1.1992,1992,27.3.1996,1996,-999,0,0,0,0,1,0,0,0,0
1234180,1,34,134,32151603,GOROUBI,DIONGORE AMONT,NE,12.960,2.320,  15350.  ,-999,1234250,0,1962,1988,27,22.87,1962,1988,27,22.98,1962,1988,27,      5.69,       .18,12, 63. , 97.1,17.1.1992,1992,27.3.1996,1996,-999,0,0,0,0,1,0,1,0,0
1234190,1,34,134,32151403,DIAMANGOU,TAMOU,NE,12.740,2.240,   4030.  ,-999,1234180,0,1962,1981,20,7.36,1962,1981,20,6.93,1962,1981,20,      2.87,       .09,22, 80. ,100. ,23.6.1992,1992,27.3.1996,1996,-999,0,0,0,0,1,0,0,0,0
1634200,1,34,134,,NIGER,FARANAH,GN,10.033,-10.750,   3180.  ,-999,1634400,0,1955,2001,47,22.32,1955,2011,57,67.61,1955,2011,57,     58.45,      1.84,580, 47.4, 95.4,17.1.1992,1992,6.9.2012,2012,16,0,0,0,0,1,0,0,0,0
1734200,1,34,134,,MEKROU,KEROU,BJ,90.000,180.000,-    999.  ,-999,1734300,0,1990,1992,3,10.79,1990,1992,3,10.71,1990,1992,3,     11.91,       .38,-999, 66.7,100. ,22.6.1992,1992,27.3.1996,1996,-999,0,0,0,0,0,0,0,0,0
1134200,1,34,134,27162010,BAOULE (TRIB. NIGER),DIOILA,ML,12.520,-6.800,  32500.  ,-999,1134300,0,1953,1992,40,31.50,1953,1990,38,8.20,1953,1992,40,    133.77,      4.22,130, 82.5, 97.7,29.1.1992,1992,10.11.1995,1995,-999,0,0,0,0,1,0,1,0,0
1434200,1,34,134,9154003,KOUROUKELE,IRADOUGOU,CI,9.700,-7.790,   2000.  ,398,1134080,0,1962,1993,32,38.73,1962,1980,19,0.90,1962,1993,32,     18.5 ,       .58,292, 59.4, 99.1,17.1.1992,1992,1.7.1998,1998,-999,0,0,0,0,0,0,0,0,0
1234200,1,34,134,32152703,TAPOA,CAMPEMENT DU DOUBLE VE,NE,12.470,2.420,   5330.  ,215,1234250,0,1963,1988,26,17.67,1963,1988,26,17.39,1963,1988,26,       .92,       .03,5, 69.2, 98.6,17.1.1992,1992,27.3.1996,1996,-999,0,0,0,0,1,0,0,0,0
1234201,1,34,134,1321500043,NIGER,W,NE,12.583,2.617,-    999.  ,-999,1734500,0,1985,2002,18,34.06,2007,2009,3,20.83,1985,2009,25,    668.79,     21.09,-999, 24. , 93.1,20.8.2003,2003,6.9.2012,2012,16,0,0,0,0,0,0,0,0,0
1134220,1,34,134,27161205,BAGOE,PANKOUROU,ML,11.420,-6.570,  31800.  ,-999,1134300,0,1956,1992,37,31.63,1956,1992,37,3.19,1956,1992,37,    168.35,      5.31,167, 94.6, 99.5,29.1.1992,1992,10.11.1995,1995,-999,0,0,0,0,1,0,1,0,0
1234250,1,34,134,,NIGER,GAYA,NE,11.880,3.400,1000000.  ,-999,1734500,0,,,,,1952,1990,39,19.61,1952,1990,39,   1104.58,     34.83,35, 66.7, 99. ,18.2.1992,1992,18.2.1992,1992,-999,0,1,1,0,1,0,0,0,0
1134250,1,34,134,27150136,NIGER,KIRANGO AVAL,ML,13.717,-6.050, 137000.  ,274,1134400,0,1925,2001,77,34.24,1925,2012,88,34.83,1925,2012,88,   1322.6 ,     41.71,304, 61.4, 98.5,29.1.1992,1992,6.9.2012,2012,16,0,0,0,0,1,0,1,0,0
1734300,1,34,134,11151306,MEKROU,KOMPONGOU,BJ,11.400,2.180,   5670.  ,255,1734450,0,1960,1992,33,20.67,1960,1992,33,19.95,1960,1992,33,     16.54,       .52,92, 69.7, 98.2,13.1.1992,1992,27.3.1996,1996,-999,0,0,0,0,1,0,0,0,0
1134300,1,34,134,27160108,BANI,DOUNA,ML,13.217,-5.900, 101600.  ,270,1134450,0,1922,2001,80,24.85,1922,2007,86,35.19,1922,2007,86,    454.64,     14.34,141, 65.1, 99.1,29.1.1992,1992,6.9.2012,2012,16,0,0,0,0,1,0,1,0,0
1434300,1,34,134,9161406,BAOULE (TRIB. NIGER),DJIRILA,CI,10.060,-7.580,   3970.  ,-999,1134080,0,1962,1993,32,54.46,1963,1977,15,6.55,1962,1993,32,     39.33,      1.24,312, 40.6, 99.4,17.1.1992,1992,1.7.1998,1998,-999,0,0,0,0,1,0,0,0,0
1134310,1,34,134,27161506,BANIFING,KOUORO 2,ML,12.020,-6.680,  14300.  ,-999,1134300,0,1975,1990,16,61.87,1975,1990,16,61.83,1975,1990,16,     15.56,       .49,34, 31.3, 98.3,29.1.1992,1992,27.3.1996,1996,-999,0,0,0,0,1,0,0,0,0
1134320,1,34,134,27161505,BANIFING,KOUORO 1,ML,12.020,-6.680,-    999.  ,-999,1134310,0,1957,1979,23,60.84,1957,1979,23,60.67,1957,1979,23,     62.76,      1.98,-999, 13. ,100. ,29.1.1992,1992,27.3.1996,1996,-999,0,0,0,0,0,0,0,0,0
1434350,1,34,134,9161409,BAOULE (TRIB. NIGER),SAMATIGUILA,CI,9.840,-7.570,   1800.  ,364,1434300,0,1962,1980,19,77.10,1962,1980,19,76.02,1962,1980,19,     17.96,       .57,315, 21.1, 97.9,17.1.1992,1992,27.3.1996,1996,-999,0,0,0,0,0,0,0,0,0
1634350,1,34,134,,NIANDAN,KISSIDOUGOU,GN,9.180,-10.060,    650.  ,-999,1634440,0,1957,1978,22,14.14,1957,1978,22,13.95,1957,1978,22,     44.38,      1.4 ,2153, 77.3, 96.1,17.1.1992,1992,27.3.1996,1996,-999,0,0,0,0,0,0,0,0,0
1134350,1,34,134,27163305,LOTIO,KLELA,ML,11.680,-5.580,   3685.  ,-999,1134300,0,1976,1979,4,33.25,1976,1979,4,31.71,1976,1979,4,     11.71,       .37,100, 25. ,100. ,29.1.1992,1992,27.3.1996,1996,-999,0,0,0,0,0,0,0,0,0
1434370,1,34,134,9163503,BANIFING,ZIEMOUGOULA,CI,9.910,-7.420,    990.  ,-999,1134150,0,1962,1993,32,73.66,1962,1980,19,59.73,1962,1993,32,      8.31,       .26,265, 25. , 97.9,17.1.1992,1992,1.7.1998,1998,-999,0,0,0,0,0,0,0,0,0
1434390,1,34,134,9164006,DEGOU,MANANKORO,CI,9.440,-7.450,   1570.  ,-999,1434350,0,1975,1993,19,69.15,1975,1980,6,12.12,1975,1993,19,      6.1 ,       .19,122, 26.3, 96.7,17.1.1992,1992,1.7.1998,1998,-999,0,0,0,0,0,0,0,0,0
1134400,1,34,134,27150127,NIGER,KE-MACINA,ML,13.950,-5.370, 141000.  ,-999,1134460,0,1953,1992,40,32.50,1953,1992,40,33.13,1953,1992,40,   1335.2 ,     42.11,299, 57.5, 96.4,29.1.1992,1992,27.3.1996,1996,-999,0,0,0,0,1,0,0,0,0
1734400,1,34,134,11151103,ALIBORI,ROUTE KANDI-BANIKOARA AMONT,BJ,11.230,2.650,   8170.  ,215,1734500,0,1952,1965,14,10.16,1952,1965,14,10.06,1952,1965,14,     41.08,      1.3 ,159, 71.4, 95.8,13.1.1992,1992,27.3.1996,1996,-999,0,0,0,0,1,0,0,0,0
1634400,1,34,134,17150120,NIGER,KOUROUSSA,GN,10.650,-9.867,  18000.  ,-999,1634650,0,1923,2002,80,43.62,1923,2009,87,70.20,1923,2009,87,    201.75,      6.36,353, 39.1, 97.3,17.1.1992,1992,6.9.2012,2012,16,0,0,0,0,1,0,1,0,0
1734410,1,34,134,11151104,ALIBORI,ROUTE KANDI-BANIKOARA AVAL,BJ,11.230,2.650,   8170.  ,215,1734400,0,1962,1992,31,26.90,1962,1992,31,25.88,1962,1992,31,     26.53,       .84,102, 67.7, 93.3,13.1.1992,1992,27.3.1996,1996,-999,0,0,0,0,1,0,0,0,0
1134420,1,34,134,27159406,DIAKA,KARA,ML,14.170,-5.020,-    999.  ,-999,1134460,0,1952,1990,39,41.25,1952,1990,39,41.47,1952,1990,39,    452.79,     14.28,-999, 43.6, 96.1,29.1.1992,1992,27.3.1996,1996,-999,0,0,0,0,0,0,0,0,0
1634420,1,34,134,,NIANDAN,BARO,GN,10.600,-9.730,  12770.  ,-999,1634400,0,1947,1979,33,16.91,1947,1979,33,17.09,1947,1979,33,    255.43,      8.06,631, 72.7, 97.6,17.1.1992,1992,27.3.1996,1996,-999,0,0,0,0,1,0,1,0,0
1634440,1,34,134,,NIANDAN,MOLOKORO,GN,10.400,-9.800,  12240.  ,-999,1634420,0,1952,1954,3,26.72,1952,1954,3,17.24,1952,1954,3,    287.56,      9.07,741, 33.3, 91.7,17.1.1992,1992,27.3.1996,1996,-999,0,0,0,0,0,0,0,0,0
1134450,1,34,134,27160105,BANI,BENENY-KEGNY,ML,13.380,-4.920, 116000.  ,-999,1134480,0,1951,1992,42,44.80,1951,2012,62,60.33,1951,2012,62,    501.99,     15.83,136, 30.6, 98.7,29.1.1992,1992,6.9.2012,2012,16,0,0,0,0,1,0,0,0,0
1734450,1,34,134,11151303,MEKROU,BAROU,BJ,12.350,2.730,  10500.  ,173,1234250,0,1961,1979,19,22.46,1961,2010,50,69.43,1961,2010,50,     31.5 ,       .99,95, 20. , 92.5,13.1.1992,1992,6.9.2012,2012,16,0,0,0,0,1,0,0,0,0
1134460,1,34,134,27150172,NIGER,TILEMBEYA,ML,14.150,-4.980, 143300.  ,-999,1134500,0,1922,1992,71,53.38,1922,1992,71,53.31,1922,1992,71,    873.98,     27.56,192, 42.3, 99.2,29.1.1992,1992,27.3.1996,1996,-999,0,0,0,0,1,0,0,0,0
1734480,1,34,134,11154003,IRANE,KOUTAKOUKROU,BJ,11.050,3.050,   1250.  ,-999,1734550,0,1953,1992,40,41.26,1953,1992,40,39.07,1953,1992,40,      4.2 ,       .13,106, 45. , 99.1,13.1.1992,1992,27.3.1996,1996,-999,0,0,0,0,0,0,0,0,0
1134480,1,34,134,27160111,BANI,SOFARA,ML,14.020,-4.250, 129000.  ,-999,1134505,0,1952,1992,41,26.27,1952,1994,43,24.31,1952,1994,43,    355.57,     11.21,87, 65.1, 97.6,29.1.1992,1992,14.7.1998,1998,-999,0,0,0,0,1,0,0,0,0
1134500,1,34,134,27150145,NIGER,NANTAKA (MOPTI),ML,14.530,-4.220, 281600.  ,260,1134630,0,1922,2001,80,28.61,1922,2012,91,47.04,1922,2012,91,   1057.26,     33.34,118, 61.5, 99. ,29.1.1992,1992,6.9.2012,2012,16,0,0,0,0,1,0,1,0,0
1434500,1,34,134,9166206,DOUNDIAN,WAHIRE,CI,9.090,-6.910,    640.  ,-999,1434390,0,1976,1993,18,70.06,1976,1980,5,8.33,1976,1993,18,      2.4 ,       .08,118, 27.8, 95. ,17.1.1992,1992,1.7.1998,1998,-999,0,0,0,0,0,0,0,0,0
1634500,1,34,134,,MILO,KANKAN,GN,10.383,-9.300,   9620.  ,361,1634650,0,1938,2001,64,18.00,1939,2007,69,50.55,1938,2007,70,    180.55,      5.69,592, 67.1, 98. ,17.1.1992,1992,6.9.2012,2012,16,0,0,0,0,1,0,0,0,0
1234500,1,34,134,,MAGGIA (TRIB. NIGER),TSERNAOUA,NE,13.880,5.330,   2525.  ,275,1234750,0,1976,1987,12,13.97,1976,1987,12,13.97,1976,1987,12,      1.39,       .04,17, 66.7,100. ,17.1.1992,1992,27.3.1996,1996,-999,0,0,0,0,1,0,0,0,0
1734500,1,34,134,11150104,NIGER,MALANVILLE,BJ,11.867,3.383,1000000.  ,155,1835110,0,1952,2000,49,19.71,1952,1992,41,25.05,1952,2000,49,   1004.24,     31.67,32, 65.3, 98.2,13.1.1992,1992,20.8.2003,2003,16,0,0,0,0,1,0,1,0,0
1134505,1,34,134,,BANI,MOPTI,ML,14.530,-4.220,-    999.  ,-999,1134500,0,1987,1987,1,0.00,1944,1992,49,0.00,1944,1992,49,   1010.51,     31.87,-999,100. , 99.8,18.2.1992,1992,14.7.1998,1998,-999,0,0,0,0,0,0,0,0,0
1434510,1,34,134,9168006,MAHANDIABANI,WAHIRE,CI,9.090,-6.930,    810.  ,-999,1434390,0,1976,1980,5,12.64,1976,1980,5,8.33,1976,1980,5,      2.66,       .08,104, 80. , 95.8,17.1.1992,1992,27.3.1996,1996,-999,0,0,0,0,0,0,0,0,0
1234550,1,34,134,,KORI DE BADEGUICHERI,BADEGUICHERI,NE,14.500,5.370,    824.  ,308,1234500,0,1976,1986,11,51.60,1976,1986,11,51.61,1976,1986,11,       .64,       .02,24, 36.4,100. ,17.1.1992,1992,27.3.1996,1996,-999,0,0,0,0,0,0,0,0,0
1634550,1,34,134,,MILO,KONSANKORO,GN,9.030,-9.000,   1000.  ,-999,1634560,0,1955,1980,26,40.82,1955,1980,26,40.32,1955,1980,26,     30.4 ,       .96,959, 42.3, 89.4,17.1.1992,1992,27.3.1996,1996,-999,0,0,0,0,0,0,0,0,0
1734550,1,34,134,11151507,SOTA,RTE KANDI-SEGBANA AVAL,BJ,10.980,3.250,   8298.  ,190,1734600,0,1973,1986,14,51.59,1973,1986,14,51.53,1973,1986,14,     13.31,       .42,51, 28.6,100. ,13.1.1992,1992,27.3.1996,1996,-999,0,0,0,0,1,0,0,0,0
1634560,1,34,134,17151707,MILO,KEROUANE,GN,9.270,-9.020,-    999.  ,-999,1634500,0,1970,1980,11,45.35,1970,1980,11,44.00,1970,1980,11,     40.84,      1.29,-999, 45.5, 93.3,17.1.1992,1992,27.3.1996,1996,-999,0,0,0,0,0,0,0,0,0
1734560,1,34,134,11151506,SOTA,RTE KANDI-SEGBANA AMONT,BJ,10.980,3.250,   8298.  ,190,1734550,0,1952,1976,25,6.78,1952,1976,25,6.12,1952,1976,25,     29.03,       .92,110, 88. , 98.9,19.2.1992,1992,27.3.1996,1996,-999,0,0,0,0,1,0,0,0,0
1934575,1,34,134,20154003,GOUDEBO,YAKOUTA,BF,14.080,-0.130,   1640.  ,-999,1934645,0,1978,1983,6,5.89,1963,1985,23,19.34,1963,1985,23,      1.35,       .04,26, 73.9, 99. ,10.1.1992,1992,18.2.1992,1992,-999,0,0,0,0,0,0,0,0,0
1734600,1,34,134,11151503,SOTA,COUBERI,BJ,11.750,3.330,  13410.  ,170,0,0,1953,1992,40,14.53,1953,1992,40,13.89,1953,1992,40,     32.94,      1.04,77, 77.5, 99.7,13.1.1992,1992,27.3.1996,1996,-999,0,0,0,0,1,0,1,0,0
1634600,1,34,134,,TINKISSO,OUARAN,GN,11.370,-9.610,  18700.  ,-999,1634700,0,1954,1978,25,17.08,1954,1978,25,16.95,1954,1978,25,    182.61,      5.76,308, 76. , 98.2,17.1.1992,1992,27.3.1996,1996,-999,0,0,0,0,1,0,1,0,0
1134600,1,34,134,,NIGER,AKKA,ML,15.400,-4.230,-    999.  ,-999,1134705,0,1987,1990,4,50.03,1987,1990,4,50.00,1987,1990,4,    529.8 ,     16.71,-999, 50. ,100. ,24.6.1992,1992,27.3.1996,1996,-999,0,0,0,0,0,0,0,0,0
1634610,1,34,134,,TINKISSO,TINKISSO,GN,90.000,180.000,-    999.  ,-999,1634600,0,1955,1978,24,24.77,1955,1978,24,24.38,1955,1978,24,     75.49,      2.38,-999, 66.7, 96.9,17.1.1992,1992,27.3.1996,1996,-999,0,0,0,0,0,0,0,0,0
1134620,1,34,134,27159703,TASSAKAN,GOUNDAM,ML,16.420,-3.650,-    999.  ,-999,1134700,0,1931,1990,60,45.45,1931,1990,60,44.40,1931,1990,60,     47.05,      1.48,-999, 33.3, 96.3,29.1.1992,1992,27.3.1996,1996,-999,0,0,0,0,0,0,0,0,0
1134630,1,34,134,27150176,NIGER,TONKA,ML,16.130,-3.750,-    999.  ,-999,1134700,0,1954,1992,39,58.97,1954,1992,39,58.57,1954,1992,39,    967.44,     30.51,-999, 20.5, 94.8,29.1.1992,1992,27.3.1996,1996,-999,0,0,0,0,0,0,0,0,0
1934645,1,34,134,,GOROUOL,KORIZIENA,BF,14.370,-0.030,   2500.  ,-999,1234080,0,,,,,1964,1989,26,28.53,1964,1989,26,      2.09,       .07,26, 65.4, 98. ,18.2.1992,1992,18.2.1992,1992,-999,0,0,0,0,1,0,0,0,0
1134650,1,34,134,27159203,BARA-ISSA,SARAFERE,ML,15.820,-3.700,-    999.  ,-999,1134630,0,1954,1992,39,37.00,1954,1992,39,36.58,1954,1992,39,    110.32,      3.48,-999, 48.7, 98.2,29.1.1992,1992,27.3.1996,1996,-999,0,0,0,0,0,0,0,0,0
1634650,1,34,134,17150130,NIGER,TIGUIBERY,GN,11.250,-9.170,  70000.  ,-999,1134700,0,1952,1979,28,10.58,1952,1979,28,10.54,1952,1979,28,   1100.52,     34.71,496, 82.1, 99.6,17.1.1992,1992,27.3.1996,1996,-999,0,0,0,0,1,0,0,0,0
1234650,1,34,134,,MARADI,GUINDAM ROUMDJI,NE,13.670,6.770,   8800.  ,313,1234750,0,1976,1979,4,0.07,1976,1979,4,0.00,1976,1979,4,      4.98,       .16,18,100. ,100. ,17.1.1992,1992,27.3.1996,1996,-999,0,0,1,0,0,0,0,0,0
1934680,1,34,134,,SIRBA,BILANGA,BF,12.630,-0.030,   3451.  ,-999,1234130,0,,,,,1974,1985,12,45.14,1974,1985,12,      1.12,       .04,10, 33.3, 95.8,18.2.1992,1992,18.2.1992,1992,-999,0,0,0,0,1,0,0,0,0
1234680,1,34,134,,MARADI,MADAROUNFA,NE,13.320,7.170,   5400.  ,355,1234650,0,1976,1979,4,0.14,1956,1979,24,8.51,1956,1979,24,      5.5 ,       .17,32, 83.3,100. ,17.1.1992,1992,18.2.1992,1992,-999,0,0,1,0,1,0,0,0,0
1634700,1,34,134,17150110,NIGER,DIALAKORO,GN,11.420,-8.910,  71000.  ,-999,1134030,0,1954,1980,27,40.27,1954,1980,27,40.31,1954,1980,27,   1149.5 ,     36.25,511, 40.7, 97. ,17.1.1992,1992,27.3.1996,1996,-999,0,0,0,0,1,0,0,0,0
1234700,1,34,134,,MARADI,NIELLOUA,NE,13.150,7.220,   4800.  ,378,1234680,0,1976,1987,12,20.61,1976,1987,12,20.59,1976,1987,12,      6.74,       .21,44, 66.7,100. ,17.1.1992,1992,27.3.1996,1996,-999,0,0,1,0,1,0,0,0,0
1434700,1,34,134,9164803,KANKELABA,DEBETE,CI,9.560,-6.670,   5550.  ,-999,1134850,0,1975,1993,19,61.93,1975,1982,8,19.10,1975,1993,19,     14.47,       .46,82, 31.6, 97.2,17.1.1992,1992,1.7.1998,1998,-999,0,0,0,0,1,0,0,0,0
1134700,1,34,134,27150118,NIGER,DIRE,ML,16.267,-3.383, 340000.  ,256,1134730,0,1924,2003,80,6.97,1924,2012,89,18.57,1924,2012,89,    995.29,     31.39,92, 85.4, 99.5,24.2.1992,1992,6.9.2012,2012,16,0,0,0,0,1,0,1,0,0
1134705,1,34,134,,NIGER,DIRE,ML,16.130,-3.220,-    999.  ,-999,1134700,0,,,,,1924,1988,65,0.00,1924,1988,65,   1011.74,     31.91,-999,100. ,100. ,18.2.1992,1992,18.2.1992,1992,-999,0,0,0,0,0,0,0,0,0
1934715,1,34,134,,FAGA,LIPTOUGOU,BF,12.680,-0.270,  15700.  ,-999,1234130,0,,,,,1973,1987,15,27.78,1973,1987,15,      8.52,       .27,17, 60. , 95.4,18.2.1992,1992,18.2.1992,1992,-999,0,0,0,0,1,0,0,0,0
1134730,1,34,134,27150138,NIGER,KORYOUME,ML,16.667,-3.033, 342000.  ,256,1134850,0,1963,2001,39,24.16,1963,1992,30,62.32,1963,2001,39,    687.71,     21.69,63, 53.8, 97.6,29.1.1992,1992,19.8.2003,2003,16,0,0,0,0,1,0,0,0,0
1434740,1,34,134,9161203,BAGOE,GUINGUERINI,CI,9.380,-6.600,   1050.  ,357,1434740,0,1955,1980,26,37.49,1955,1980,26,37.74,1955,1980,26,     12.08,       .38,363, 42.3, 93.9,17.1.1992,1992,27.3.1996,1996,-999,0,0,0,0,0,0,0,0,0
1434750,1,34,134,9165503,NIANGBOUE,PONONDOUGOU,CI,9.510,-6.360,    700.  ,-999,1434780,0,1955,1993,39,49.16,1955,1980,26,25.57,1955,1993,39,      3.63,       .11,163, 33.3, 91.7,17.1.1992,1992,1.7.1998,1998,-999,0,0,0,0,0,0,0,0,0
1434780,1,34,134,9161209,BAGOE,TOMBOUGOU 1,CI,9.650,-6.370,   2580.  ,-999,1434820,0,1955,1968,14,23.63,1955,1968,14,25.61,1955,1968,14,     39.45,      1.24,482, 35.7, 91.7,17.1.1992,1992,27.3.1996,1996,-999,0,0,0,0,1,0,0,0,0
1434790,1,34,134,9161210,BAGOE,TOMBOUGOU 2,CI,9.650,-6.370,-    999.  ,-999,1434780,0,1963,1978,16,22.52,1963,1978,16,21.88,1963,1978,16,     17.65,       .56,-999, 62.5, 90. ,17.1.1992,1992,27.3.1996,1996,-999,0,0,0,0,0,0,0,0,0
1634800,1,34,134,,SANKARANI,MANDIANA,GN,10.630,-8.680,  21900.  ,-999,1134020,0,1954,1978,25,20.81,1954,1978,25,20.00,1954,1978,25,    279.01,      8.8 ,402, 68. , 99. ,17.1.1992,1992,27.3.1996,1996,-999,0,0,0,0,1,0,0,0,0
1434810,1,34,134,9161206,BAGOE,KOUTO AVAL,CI,9.850,-6.360,   4700.  ,-999,1434850,0,1960,1993,34,36.87,1960,1980,21,1.21,1960,1993,34,     36.22,      1.14,243, 61.8, 98.8,17.1.1992,1992,1.7.1998,1998,-999,0,0,0,0,1,0,0,0,0
1434820,1,34,134,9161207,BAGOE,KOUTO AMONT,CI,9.883,-6.367,-    999.  ,-999,1434810,0,1970,2001,32,19.92,1973,1986,14,41.36,1970,2001,32,     27.86,       .88,-999, 68.8, 95.8,17.1.1992,1992,19.8.2003,2003,16,0,0,0,0,0,0,0,0,0
1134850,1,34,134,27150181,NIGER,TOSSAYE,ML,16.930,-0.580, 348000.  ,-999,1134900,0,1954,1992,39,33.26,1954,1992,39,32.61,1954,1992,39,   1077.58,     33.98,98, 56.4, 93.2,29.1.1992,1992,27.3.1996,1996,-999,0,0,0,0,1,0,0,0,0
1434850,1,34,134,9161208,BAGOE,PAPARA,CI,10.630,-6.220,   8900.  ,-999,1134220,0,1976,1993,18,64.47,1976,1982,7,16.67,1976,1993,18,     34.27,      1.08,121, 33.3, 97.2,17.1.1992,1992,1.7.1998,1998,-999,0,0,0,0,1,0,0,0,0
1934890,1,34,134,,DIAMANGOU,BOTOU,BF,12.420,0.150,   2994.  ,-999,1234190,0,,,,,1980,1985,6,12.50,1980,1985,6,      1.66,       .05,17, 83.3, 91.7,18.2.1992,1992,18.2.1992,1992,-999,0,0,0,0,0,0,0,0,0
1134900,1,34,134,27150106,NIGER,ANSONGO,ML,15.667,0.500, 566000.  ,242,1234090,0,1950,2001,52,24.01,1951,2012,62,36.24,1950,2012,63,    906.39,     28.58,51, 58.7, 96.6,29.1.1992,1992,6.9.2012,2012,16,0,0,0,0,1,0,1,0,0
1335011,1,35,135,5170103,BENUE,BUFFLE NOIR,CM,8.120,13.830,   3220.  ,360,1335014,0,,,,,1955,1978,24,10.39,1955,1978,24,     45.45,      1.43,445, 83.3,100. ,24.6.1992,1992,24.6.1992,1992,-999,0,0,0,0,1,0,0,0,0
1335014,1,35,135,5170121,BENUE,RIAO,CM,9.050,13.680,  30650.  ,186,1335500,0,,,,,1950,1980,31,9.32,1950,1980,31,    240.38,      7.58,247, 80.6,100. ,24.6.1992,1992,24.6.1992,1992,-999,0,0,0,0,1,0,1,0,0
1535100,1,35,135,1461704003,KABIA,GOUNOU-GAYA,TD,9.690,15.500,   3840.  ,-999,1335500,0,1978,1990,13,47.25,1978,1990,13,47.22,1978,1990,13,      3.66,       .12,30, 38.5,100. ,29.6.1992,1992,27.3.1996,1996,-999,0,0,0,0,1,0,0,0,0
1535110,1,35,135,1461704007,KABIA,PONT CAROL,TD,9.280,15.500,   2072.  ,-999,1535100,0,1978,1990,13,11.89,1978,1990,13,11.81,1978,1990,13,      1.02,       .03,16, 69.2,100. ,29.6.1992,1992,27.3.1996,1996,-999,0,0,0,0,0,0,0,0,0
1335122,1,35,135,5171215,FARO,SAFAIE,CM,8.600,12.830,  23500.  ,230,1835800,0,,,,,1953,1971,19,16.44,1953,1971,19,    308.97,      9.74,415, 68.4,100. ,24.6.1992,1992,24.6.1992,1992,-999,0,0,0,0,1,0,1,0,0
1335181,1,35,135,,KEBI,COSSI,CM,9.620,13.870,  25000.  ,195,1335500,0,,,,,1955,1979,25,0.00,1955,1979,25,     96.67,      3.05,122,100. ,100. ,24.6.1992,1992,24.6.1992,1992,-999,0,0,0,0,1,0,0,0,0
1335241,1,35,135,5172403,MAYO-REY,TCHOLLIRE,CM,8.400,14.250,   5240.  ,270,1335014,0,,,,,1975,1979,5,0.00,1975,1979,5,     49.12,      1.55,296,100. ,100. ,24.6.1992,1992,24.6.1992,1992,-999,0,0,0,0,0,0,0,0,0
1835300,1,35,135,,DONGA,DONGA,NG,7.720,10.000,-    999.  ,-999,1835900,0,,,,,1977,1977,1,0.00,1977,1977,1,       .  ,-    999.  ,-999,   . ,,18.2.1992,1992,18.2.1992,1992,-999,0,0,0,0,0,0,0,0,0
1335381,1,35,135,5173803,MAYO-LOUTI,FIGUIL,CM,9.770,13.930,   5550.  ,242,1335181,0,,,,,1974,1979,6,0.00,1974,1979,6,     30.23,       .95,172, 83.3, 98.3,24.6.1992,1992,24.6.1992,1992,-999,0,0,0,0,0,0,0,0,0
1335451,1,35,135,5174503,METCHUM,GOURI,CM,6.280,10.030,   2240.  ,550,0,0,,,,,1964,1980,17,8.42,1964,1980,17,    105.74,      3.34,1489, 88.2, 97.8,24.6.1992,1992,24.6.1992,1992,-999,0,0,0,0,0,0,0,0,0
1335500,1,35,135,,BENUE,GAROUA,CM,9.300,13.380,  64000.  ,174,1835800,0,,,,,1930,1980,51,25.45,1930,1980,51,    352.7 ,     11.12,174, 62.7, 99.5,18.2.1992,1992,18.2.1992,1992,-999,0,0,0,0,1,0,1,0,0
1835800,1,35,135,,BENUE,YOLA,NG,9.250,12.500, 107000.  ,-999,1835900,0,,,,,1960,1989,30,0.00,1960,1989,30,     21.93,       .69,6,100. ,100. ,28.2.1992,1992,28.2.1992,1992,-999,0,1,0,0,1,0,1,0,0
1835900,1,35,135,1331500009,BENUE,IBI,NG,8.200,9.733,-    999.  ,-999,1834101,0,1970,2002,33,50.86,2007,2008,2,14.29,1970,2008,39,   1703.17,     53.71,-999, 33.3, 92.9,19.8.2003,2003,6.9.2012,2012,16,0,0,0,0,0,0,0,0,0
1336500,1,36,136,,CROSS,MAMFE,CM,5.750,9.320,   6810.  ,44,0,0,,,,,1967,1979,13,1.31,1967,1979,13,    525.79,     16.58,2435, 92.3, 98.6,18.2.1992,1992,18.2.1992,1992,-999,0,0,0,0,1,0,0,0,0
1737080,1,37,137,,OUHAM,BOZOUM,CF,6.330,16.350,   8100.  ,-999,1737100,0,1987,1988,2,0.27,1987,1988,2,0.00,1987,1988,2,       .  ,-    999.  ,-999,   . ,,13.1.1992,1992,27.3.1996,1996,-999,0,0,0,0,0,0,0,0,0
1337100,1,37,137,,VINA,LAHORE,CM,7.220,13.570,   1690.  ,1048,1337101,0,,,,,1951,1980,30,4.76,1951,1980,30,     36.71,      1.16,685, 86.7,100. ,18.2.1992,1992,18.2.1992,1992,-999,0,0,0,0,0,0,0,0,0
1737100,1,37,137,,OUHAM,BAC-BEA,CF,6.480,17.080,  13350.  ,-999,1337150,0,1986,1992,7,35.07,1986,1992,7,35.06,1986,1992,7,    102.24,      3.22,242, 28.6, 95.8,13.1.1992,1992,27.3.1996,1996,-999,0,0,0,0,0,0,0,0,0
1537100,1,37,137,,CHARI,NDJAMENA(FORT LAMY),TD,12.120,15.030, 600000.  ,285,0,0,1976,1991,16,19.21,1933,1991,59,11.60,1933,1991,59,   1043.1 ,     32.9 ,55, 81.4,100. ,18.2.1992,1992,11.8.1992,1992,-999,0,0,0,0,1,0,1,0,0
1337101,1,37,137,5031510,VINA,TOUBORO,CM,7.750,15.330,  12200.  ,472,1537180,0,,,,,1964,1972,9,12.50,1964,1972,9,    149.85,      4.73,387, 55.6,100. ,24.6.1992,1992,24.6.1992,1992,-999,0,0,0,0,0,0,0,0,0
1837101,1,37,137,,YOBE,YAU,NG,13.562,13.235,  84140.  ,292,1837100,0,1963,1978,16,69.70,,,,,1963,1978,16,     20.7 ,       .65,8, 12.5, 87.5,28.7.2010,2010,28.7.2010,2010,57,0,0,0,0,0,0,0,0,0
1837102,1,37,137,,YOBE,DAYA,NG,13.517,13.134,-    999.  ,298,1837101,0,1977,1978,2,0.00,,,,,1977,1978,2,       .  ,-    999.  ,-999,   . ,,28.7.2010,2010,28.7.2010,2010,57,0,0,0,0,0,0,0,0,0
1837103,1,37,137,,YOBE,GASHAGAR,NG,13.377,12.794,  83074.  ,303,1837102,0,1963,1968,6,13.58,,,,,1963,1968,6,     18.87,       .6 ,7, 50. , 94.4,28.7.2010,2010,28.7.2010,2010,57,0,0,0,0,0,0,0,0,0
1837104,1,37,137,,YOBE,DAMASAK,NG,13.278,12.621,  82562.  ,306,1837103,0,1963,1978,16,66.92,,,,,1963,1978,16,     24.01,       .76,9, 18.8, 94.4,28.7.2010,2010,28.7.2010,2010,57,0,0,0,0,0,0,0,0,0
1837106,1,37,137,,YOBE,GEIDAM,NG,12.990,11.971,  67340.  ,325,1837105,0,1958,2005,48,72.87,,,,,1958,2005,48,     33.71,      1.06,16, 12.5, 95.8,28.7.2010,2010,28.7.2010,2010,57,0,0,0,0,0,0,0,0,0
1837107,1,37,137,,YOBE,GASHUA,NG,12.862,11.045,  62150.  ,335,1837106,0,1962,2005,44,20.80,,,,,1962,2005,44,     36.23,      1.14,18, 59.1, 98.1,28.7.2010,2010,28.7.2010,2010,57,0,0,0,0,0,0,0,0,0
1537120,1,37,137,37017,CHARI,CHAGOUA,TD,12.050,15.050,-    999.  ,-999,1537100,0,1983,1986,4,10.22,1983,1986,4,11.11,1983,1986,4,    107.07,      3.38,-999, 25. ,100. ,13.1.1992,1992,27.3.1996,1996,-999,0,0,0,0,0,0,0,0,0
1537130,1,37,137,37021,CHARI,MAILAO,TD,11.580,15.280, 500000.  ,-999,1537120,0,1983,1986,4,14.32,1983,1986,4,11.11,1983,1986,4,     93.9 ,      2.96,6, 25. ,100. ,13.1.1992,1992,27.3.1996,1996,-999,0,0,0,0,0,0,0,0,0
1737150,1,37,137,,OUHAM,BOSSANGOA,CF,6.470,17.450,  22800.  ,-999,1737210,0,1986,1992,7,35.99,1951,1992,42,45.82,1951,1992,42,    223.2 ,      7.04,309, 40.5, 99. ,13.1.1992,1992,9.11.1995,1995,-999,0,0,0,0,1,0,1,0,0
1537150,1,37,137,37024,LOGONE,BONGOR,TD,10.270,15.420,  73700.  ,321,1537100,0,1983,1986,4,5.64,1948,1986,39,26.05,1948,1986,39,    496.69,     15.66,213, 59. , 96.4,13.1.1992,1992,28.2.1992,1992,-999,0,0,0,0,1,0,1,0,0
1337151,1,37,137,5031503,BINI,BEREM,CM,7.550,13.950,   1585.  ,810,1337101,0,,,,,1963,1980,18,1.89,1963,1980,18,     25.98,       .82,517, 88.9,100. ,24.6.1992,1992,24.6.1992,1992,-999,0,0,0,0,0,0,0,0,0
1537170,1,37,137,1460301403,LIM (TRIB. CHARI),OULI BANGALA,TD,7.830,15.830,   4360.  ,445,1537180,0,1978,1990,13,27.54,1978,1990,13,27.78,1978,1990,13,     42.43,      1.34,307, 53.8,100. ,29.6.1992,1992,27.3.1996,1996,-999,0,0,0,0,1,0,1,0,0
1537180,1,37,137,37035,LOGONE,MOUNDOU,TD,8.530,16.070,  33970.  ,391,1537200,0,1983,1985,3,9.97,1935,1985,51,48.01,1935,1985,51,    353.78,     11.16,328, 31.4, 96.9,13.1.1992,1992,28.2.1992,1992,-999,0,0,0,0,1,0,1,0,0
1537200,1,37,137,37038,LOGONE,LAI,TD,9.400,16.300,  56700.  ,350,1537150,0,1983,1986,4,12.77,1948,1986,39,43.96,1948,1986,39,    476.34,     15.02,265, 41. , 97.9,13.1.1992,1992,28.2.1992,1992,-999,0,0,0,0,1,0,0,0,0
1737200,1,37,137,,FAFA,BOUCA,CF,6.500,18.270,   6750.  ,-999,1737210,0,1986,1994,9,45.55,1958,1994,37,46.05,1958,1994,37,     43.15,      1.36,202, 43.2, 99.5,13.1.1992,1992,9.11.1995,1995,-999,0,0,0,0,1,0,0,0,0
1337200,1,37,137,,MBERE,MBERE,CM,7.430,15.440,   7430.  ,-999,1537180,0,,,,,1951,1978,28,2.13,1951,1978,28,    109.32,      3.45,464, 96.4, 97.8,24.6.1992,1992,24.6.1992,1992,-999,0,0,0,0,1,0,0,0,0
1837200,1,37,137,,KOMADUGU-GANA,DAPCHI,NG,12.494,11.507,  14504.  ,338,1837105,0,1963,2005,43,79.59,,,,,1963,2005,43,       .  ,-    999.  ,-999,   . ,,28.7.2010,2010,28.7.2010,2010,57,0,0,0,0,0,0,0,0,0
1837202,1,37,137,,KOMADUGU-GANA,KARI,NG,11.254,10.557,   5869.  ,401,1837201,0,1963,1978,16,60.71,,,,,1963,1978,16,       .  ,-    999.  ,-999,   . ,,28.7.2010,2010,28.7.2010,2010,57,0,0,0,0,0,0,0,0,0
1737210,1,37,137,,OUHAM,BATANGAFO,CF,7.300,18.280,  44700.  ,-999,1537450,0,1987,1994,8,61.13,1951,1994,44,66.60,1951,1994,44,    346.68,     10.93,245, 20.5, 96.3,13.1.1992,1992,9.11.1995,1995,-999,0,0,0,0,1,0,1,0,0
1737250,1,37,137,,GRIBINGUE,KAGA-BANDORO,CF,7.000,19.180,   5860.  ,-999,1537500,0,1986,1988,3,4.10,1986,1988,3,4.17,1986,1988,3,      5.55,       .18,30, 33.3,100. ,13.1.1992,1992,27.3.1996,1996,-999,0,0,0,0,0,0,0,0,0
1537250,1,37,137,,PENDE,DOBA,TD,8.650,16.830,  14300.  ,-999,1537200,0,,,,,1947,1975,29,26.95,1947,1975,29,    125.24,      3.95,276, 44.8, 98.7,28.2.1992,1992,28.2.1992,1992,-999,0,0,0,0,1,0,1,0,0
1837250,1,37,137,,JAMA'ARE,KATAGUM,NG,12.281,10.368,  15000.  ,358,1837107,0,1975,1998,24,34.90,,,,,1975,1998,24,     61.63,      1.94,130, 29.2, 96.4,28.7.2010,2010,28.7.2010,2010,57,0,0,0,0,0,0,0,0,0
1337251,1,37,137,5802506,TSANAGA,BOGO,CM,10.730,14.600,   1535.  ,337,0,0,,,,,1954,1980,27,46.75,1954,1980,27,      7.76,       .25,159, 44.4, 95.8,24.6.1992,1992,24.6.1992,1992,-999,0,0,0,0,0,0,0,0,0
1837253,1,37,137,,JAMA'ARE,FOGGO,NG,11.424,9.951,   9842.  ,407,1837252,0,1963,1982,20,21.92,,,,,1963,1982,20,     78.9 ,      2.49,253, 45. , 88.9,28.7.2010,2010,28.7.2010,2010,57,0,0,0,0,0,0,0,0,0
1837255,1,37,137,,JAMA'ARE,BUNGA,NG,10.930,9.606,   7977.  ,473,1837254,0,1964,1998,35,17.42,,,,,1964,1998,35,     56.06,      1.77,222, 62.9, 98.5,28.7.2010,2010,28.7.2010,2010,57,0,0,0,0,0,0,0,0,0
1837275,1,37,137,,DAGWALO,BIRNIN KUDU,NG,11.428,9.487,   1891.  ,419,1837270,0,1964,1978,15,51.87,,,,,1964,1978,15,       .  ,-    999.  ,-999,   . ,,28.7.2010,2010,28.7.2010,2010,57,0,0,0,0,0,0,0,0,0
1737280,1,37,137,,KOUKOUROU,KOUKOUROU,CF,7.200,20.020,   5720.  ,-999,1537500,0,1986,1994,9,44.83,1954,1994,41,63.18,1954,1994,41,     18.78,       .59,104, 19.5, 96.9,13.1.1992,1992,9.11.1995,1995,-999,0,0,0,0,1,0,0,0,0
1837285,1,37,137,,IGGI,IGGI,NG,11.528,9.337,   1334.  ,415,1837270,0,1964,1978,15,35.46,,,,,1964,1978,15,      4.14,       .13,98, 40. , 88.9,28.7.2010,2010,28.7.2010,2010,57,0,0,0,0,0,0,0,0,0
1537300,1,37,137,37042,CHARI,BOUSSO,TD,10.480,16.720, 450000.  ,325,1537130,0,1984,1985,2,13.36,1936,1985,50,50.86,1936,1985,50,    843.25,     26.59,59, 40. , 97.5,13.1.1992,1992,28.2.1992,1992,-999,0,0,0,0,1,0,1,0,0
1737300,1,37,137,,BAMINGUI,BAMINGUI,CF,7.570,20.180,   4380.  ,-999,1537500,0,1986,1994,9,60.03,1952,1994,43,51.39,1952,1994,43,     20.45,       .65,147, 34.9, 98.3,13.1.1992,1992,9.11.1995,1995,-999,0,0,0,0,1,0,0,0,0
1837400,1,37,137,,HADEJIA,GABARUA (OLD BRANCH HADJERA),NG,12.763,10.680,-    999.  ,347,1837107,0,1994,1995,2,50.20,,,,,1994,1995,2,       .  ,-    999.  ,-999,   . ,,27.7.2010,2010,27.7.2010,2010,57,0,0,0,0,0,0,0,0,0
1837401,1,37,137,,HADEJIA,HADEJIA,NG,12.441,10.031,  30435.  ,357,1837400,0,1963,2006,44,8.29,,,,,1963,2006,44,     24.41,       .77,25, 79.5, 96.9,27.7.2010,2010,27.7.2010,2010,57,0,0,0,0,0,0,0,0,0
1837408,1,37,137,,HADEJIA,SOUTH BRANCH AT SUNTULMAWA,NG,12.098,9.188,  18640.  ,390,1837406,0,1971,1978,8,35.98,,,,,1971,1978,8,     16.53,       .52,28, 12.5,100. ,27.7.2010,2010,27.7.2010,2010,57,0,0,0,0,0,0,0,0,0
1837409,1,37,137,,HADEJIA,DABI,NG,12.080,8.959,-    999.  ,394,1837408,0,1976,1980,5,4.97,,,,,1976,1980,5,     32.96,      1.04,-999, 80. , 93.8,27.7.2010,2010,27.7.2010,2010,57,0,0,0,0,0,0,0,0,0
1837410,1,37,137,,HADEJIA,WUDIL,NG,11.797,8.834,  16380.  ,413,1837409,0,1963,2005,43,35.91,,,,,1963,2005,43,     45.53,      1.44,88, 41.9, 98.6,27.7.2010,2010,27.7.2010,2010,57,0,0,0,0,0,0,0,0,0
1837420,1,37,137,,KAFIN HAUSA,KAFIN HAUSA,NG,12.261,9.918,-    999.  ,365,1837404,0,1973,2006,34,45.82,,,,,1973,2006,34,       .95,       .03,-999, 14.7, 98.3,27.7.2010,2010,27.7.2010,2010,57,0,0,0,0,0,0,0,0,0
1837430,1,37,137,,KANO (TRIB. HADEJIA),CHIROMAWA,NG,11.611,8.377,   6975.  ,466,1837412,0,1963,1996,34,45.31,,,,,1963,1996,34,     24.75,       .78,112, 41.2, 99.4,27.7.2010,2010,27.7.2010,2010,57,0,0,0,0,0,0,0,0,0
1837431,1,37,137,,KANO (TRIB. HADEJIA),TIGA DAM,NG,11.468,8.408,   6553.  ,497,1837430,0,1970,1999,30,70.60,,,,,1970,1999,30,     27.16,       .86,131, 23.3, 97.6,27.7.2010,2010,27.7.2010,2010,57,0,0,0,0,0,0,0,0,0
1837432,1,37,137,,KANO (TRIB. HADEJIA),FALGORE,NG,11.206,8.637,   4481.  ,537,1837431,0,1973,1973,1,56.78,,,,,1973,1973,1,       .  ,-    999.  ,-999,   . ,,27.7.2010,2010,27.7.2010,2010,57,0,0,0,0,0,0,0,0,0
1837433,1,37,137,,KANO (TRIB. HADEJIA),RIRWAI,NG,10.754,8.815,    943.  ,663,1837432,0,1970,1978,9,36.57,,,,,1970,1978,9,       .  ,-    999.  ,-999,   . ,,27.7.2010,2010,27.7.2010,2010,57,0,0,0,0,0,0,0,0,0
1837440,1,37,137,,DUKU,YARYASA,NG,11.347,8.303,    907.  ,528,1837432,0,1973,1973,1,0.00,,,,,1973,1973,1,       .  ,-    999.  ,-999,   . ,,27.7.2010,2010,27.7.2010,2010,57,0,0,0,0,0,0,0,0,0
1537450,1,37,137,37047,OUHAM,MOISSALA,TD,8.330,17.770,  67600.  ,518,1537480,0,1983,1984,2,0.86,1951,1984,34,29.01,1951,1984,34,    502.99,     15.86,235, 58.8, 99.2,13.1.1992,1992,28.2.1992,1992,-999,0,0,0,0,1,0,0,0,0
1837450,1,37,137,,CHALLAWA,CHALLAWA BRIDGE,NG,11.905,8.413,   6890.  ,441,1837412,0,1963,1977,15,50.19,,,,,1963,1977,15,       .  ,-    999.  ,-999,   . ,,27.7.2010,2010,27.7.2010,2010,57,0,0,0,0,0,0,0,0,0
1837451,1,37,137,,CHALLAWA,CHALLAWA GORGE,NG,11.742,8.072,   3860.  ,490,1837450,0,1971,2005,35,69.82,,,,,1971,2005,35,     19.23,       .61,157, 14.3, 91.7,27.7.2010,2010,27.7.2010,2010,57,0,0,0,0,0,0,0,0,0
1837460,1,37,137,,WATARI (TRIB. HADEJIA),GWARZO,NG,11.963,8.408,   1450.  ,451,1837450,0,1963,1973,11,52.03,,,,,1963,1973,11,       .  ,-    999.  ,-999,   . ,,27.7.2010,2010,27.7.2010,2010,57,0,0,0,0,0,0,0,0,0
1837461,1,37,137,,WATARI (TRIB. HADEJIA),DAWAKIN TOFA,NG,12.075,8.334,   1127.  ,465,1837460,0,1964,1973,10,60.55,,,,,1964,1973,10,       .  ,-    999.  ,-999,   . ,,27.7.2010,2010,27.7.2010,2010,57,0,0,0,0,0,0,0,0,0
1837462,1,37,137,,WATARI (TRIB. HADEJIA),BAGWAI,NG,12.172,8.156,    653.  ,493,1837461,0,1973,1973,1,0.00,,,,,1973,1973,1,       .  ,-    999.  ,-999,   . ,,27.7.2010,2010,27.7.2010,2010,57,0,0,0,0,0,0,0,0,0
1837470,1,37,137,,JAKARA,GEZAWA,NG,12.140,8.703,    534.  ,413,1837409,0,1964,1973,10,44.93,,,,,1964,1973,10,       .7 ,       .02,41, 10. , 83.3,28.7.2010,2010,28.7.2010,2010,57,0,0,0,0,0,0,0,0,0
1537480,1,37,137,37048,OUHAM,MANDA,TD,9.080,18.200,  80000.  ,-999,1537300,0,1983,1986,4,5.57,1983,1986,4,5.56,1983,1986,4,    123.61,      3.9 ,49, 50. , 91.7,13.1.1992,1992,27.3.1996,1996,-999,0,0,0,0,0,0,0,0,0
1837500,1,37,137,,GARI,JEKARADE,NG,12.593,8.459,   1562.  ,424,1837403,0,1963,1973,11,42.60,,,,,1963,1973,11,      3.1 ,       .1 ,63, 18.2, 95.8,28.7.2010,2010,28.7.2010,2010,57,0,0,0,0,0,0,0,0,0
1237500,1,37,137,,KOMADOUGOU YOBE,BAGARA DIFFA,NE,13.280,12.600, 115000.  ,298,0,0,1976,1980,5,0.07,1967,1990,24,0.00,1967,1990,24,     14.56,       .46,4, 95.8,100. ,17.1.1992,1992,18.2.1992,1992,-999,0,0,0,0,1,0,1,0,0
1537500,1,37,137,,CHARI,SARH(FORT ARCHAMBAULT),TD,9.150,18.420, 193000.  ,355,1537300,0,1983,1986,4,1.95,1938,1986,49,32.24,1938,1986,49,    272.86,      8.61,45, 59.2,100. ,13.1.1992,1992,18.2.1992,1992,-999,0,0,0,0,1,0,0,0,0
1837501,1,37,137,,GARI,KUNCHI,NG,12.492,8.269,   1155.  ,466,1837500,0,1973,1973,1,0.00,,,,,1973,1973,1,       .  ,-    999.  ,-999,   . ,,28.7.2010,2010,28.7.2010,2010,57,0,0,0,0,0,0,0,0,0
1837510,1,37,137,,TOMAS,BABARUGA,NG,12.317,8.533,    689.  ,423,1837403,0,1964,1973,10,49.49,,,,,1964,1973,10,       .  ,-    999.  ,-999,   . ,,28.7.2010,2010,28.7.2010,2010,57,0,0,0,0,0,0,0,0,0
1837520,1,37,137,,TUWARA,KAZAURE,NG,12.652,8.411,    451.  ,448,1837500,0,1969,1973,5,65.86,,,,,1969,1973,5,       .  ,-    999.  ,-999,   . ,,28.7.2010,2010,28.7.2010,2010,57,0,0,0,0,0,0,0,0,0
1837560,1,37,137,,MARMA CHANNEL,LIKORI,NG,12.637,10.304,-    999.  ,352,1837400,0,1973,2004,32,12.27,,,,,1973,2004,32,     12.25,       .39,-999, 71.9, 99.3,27.7.2010,2010,27.7.2010,2010,57,0,0,0,0,0,0,0,0,0
1837561,1,37,137,,MARMA CHANNEL,KASAGA,NG,12.804,10.386,-    999.  ,346,1837560,0,1995,1998,4,0.00,,,,,1995,1998,4,      5.35,       .17,-999, 50. ,100. ,27.7.2010,2010,27.7.2010,2010,57,0,0,0,0,0,0,0,0,0
1837570,1,37,137,,DUDURUN GAYA / WARWADE,CHAI-CHAI,NG,12.016,9.268,   1710.  ,390,1837408,0,1963,1990,28,61.87,,,,,1963,1990,28,       .  ,-    999.  ,-999,   . ,,27.7.2010,2010,27.7.2010,2010,57,0,0,0,0,0,0,0,0,0
1837580,1,37,137,,DUDURUN,GAYA,NG,11.810,8.881,    782.  ,411,1837409,0,1963,1974,12,16.27,,,,,1963,1974,12,      1.65,       .05,66, 58.3, 98.8,27.7.2010,2010,27.7.2010,2010,57,0,0,0,0,0,0,0,0,0
1837700,1,37,137,,NGGADA,MAIDUGURI,NG,11.850,13.167,-    999.  ,322,0,0,1977,1977,1,0.00,,,,,1977,1977,1,       .  ,-    999.  ,-999,   . ,,28.7.2010,2010,28.7.2010,2010,57,0,0,0,0,0,0,0,0,0
1737700,1,37,137,,BAHR AOUK,GOLONGOSSO,CF,9.000,19.150,  96000.  ,-999,1537500,0,,,,,1952,1974,23,15.91,1952,1974,23,     74.87,      2.36,25, 60.9, 96.4,28.2.1992,1992,28.2.1992,1992,-999,0,0,0,0,1,0,1,0,0
1837701,1,37,137,,NGGADA,LOGOJERI,NG,11.685,13.314,-    999.  ,329,1837700,0,1977,1978,2,0.00,,,,,1977,1978,2,       .  ,-    999.  ,-999,   . ,,28.7.2010,2010,28.7.2010,2010,57,0,0,0,0,0,0,0,0,0
1837800,1,37,137,,YEDSERAM,BAMA,NG,11.533,13.683,   4750.  ,328,0,0,1977,1977,1,0.00,,,,,1977,1977,1,       .  ,-    999.  ,-999,   . ,,28.7.2010,2010,28.7.2010,2010,57,0,0,0,0,0,0,0,0,0
1537800,1,37,137,,BAHR AZOUM,AM-TIMAN,TD,11.030,20.280,  80000.  ,-999,0,0,,,,,1953,1976,24,17.03,1953,1976,24,     28.79,       .91,11, 54.2,100. ,28.2.1992,1992,28.2.1992,1992,-999,0,0,0,0,1,0,1,0,0
1837801,1,37,137,,YEDSERAM,UBA,NG,10.456,13.231,-    999.  ,488,1837800,0,1977,1978,2,0.00,,,,,1977,1978,2,       .  ,-    999.  ,-999,   . ,,28.7.2010,2010,28.7.2010,2010,57,0,0,0,0,0,0,0,0,0
1837810,1,37,137,,MBULI,MBULI,NG,12.317,14.117,-    999.  ,289,0,0,1977,1977,1,0.00,,,,,1977,1977,1,       .  ,-    999.  ,-999,   . ,,28.7.2010,2010,28.7.2010,2010,57,0,0,0,0,0,0,0,0,0
1338050,1,38,138,,SANAGA,EDEA,CM,3.770,10.070, 131520.  ,12,0,0,,,,,1943,1980,38,0.00,1943,1980,38,   1985.6 ,     62.62,476, 94.7,100. ,18.2.1992,1992,18.2.1992,1992,-999,0,1,0,0,1,0,1,0,0
1338200,1,38,138,,NOUN,BAFOUSSAM,CM,5.470,10.550,   4700.  ,987,1338300,0,,,,,1952,1975,24,0.00,1952,1975,24,    104.01,      3.28,698, 95.8,100. ,18.2.1992,1992,18.2.1992,1992,-999,0,0,0,0,1,0,0,0,0
1338201,1,38,138,5232003,LOM,BETARE-OYA,CM,5.920,14.130,  11100.  ,662,1338400,0,,,,,1951,1980,30,1.68,1951,1980,30,    176.72,      5.57,502, 93.3,100. ,24.6.1992,1992,24.6.1992,1992,-999,0,0,0,0,1,0,1,0,0
1338252,1,38,138,,MBAM,MANTOUM,CM,5.620,11.180,  14700.  ,660,1338300,0,,,,,1965,1980,16,0.53,1965,1980,16,    320.25,     10.1 ,687, 93.8, 99.4,24.6.1992,1992,24.6.1992,1992,-999,0,0,0,0,1,0,1,0,0
1338271,1,38,138,5232703,NDJEKE,NGONGON,CM,4.800,12.000,   3720.  ,560,1338400,0,,,,,1968,1980,13,4.55,1968,1980,13,     36.73,      1.16,311, 84.6, 98.5,24.6.1992,1992,24.6.1992,1992,-999,0,0,0,0,1,0,0,0,0
1338300,1,38,138,,MBAM,GOURA,CM,4.570,11.370,  42300.  ,396,1338050,0,,,,,1951,1980,30,0.57,1951,1980,30,    706.55,     22.28,527, 93.3, 99.4,18.2.1992,1992,18.2.1992,1992,-999,0,0,0,0,1,0,1,0,0
1338400,1,38,138,,SANAGA,NACHTIGAL,CM,4.350,11.630,  76000.  ,426,1338050,0,,,,,1951,1980,30,0.00,1951,1980,30,   1072.3 ,     33.82,445, 93.3,100. ,18.2.1992,1992,18.2.1992,1992,-999,0,0,0,0,1,0,1,0,0
1338401,1,38,138,5234003,MAPE,MAGBA,CM,5.920,12.670,   4020.  ,684,1338400,0,,,,,1952,1980,29,0.00,1952,1980,29,     95.47,      3.01,749,100. ,100. ,24.6.1992,1992,24.6.1992,1992,-999,0,0,0,0,1,0,0,0,0
1338503,1,38,138,5035006,NOUN,BAMENDJING,CM,5.680,10.500,   2190.  ,1131,1338200,0,,,,,1965,1979,15,0.60,1965,1979,15,     41.59,      1.31,599, 86.7, 99.4,24.6.1992,1992,24.6.1992,1992,-999,0,0,0,0,0,0,0,0,0
1338600,1,38,138,,DJEREM,MBAKAOU,CM,6.330,12.820,  20390.  ,826,1338400,0,,,,,1959,1980,22,0.40,1959,1980,22,    385.54,     12.16,596, 90.9, 99.6,18.2.1992,1992,18.2.1992,1992,-999,0,0,0,0,1,0,1,0,0
1339011,1,39,139,5600106,NYONG,AKONOLINGA,CM,3.780,12.250,   8350.  ,643,1339500,0,,,,,1954,1977,24,0.00,1954,1977,24,     92.44,      2.92,349, 95.8,100. ,24.6.1992,1992,24.6.1992,1992,-999,0,0,0,0,1,0,0,0,0
1339012,1,39,139,5600109,NYONG,AYOS,CM,3.880,12.520,   5300.  ,646,1339011,0,,,,,1951,1977,27,0.00,1951,1977,27,     57.41,      1.81,342, 92.6,100. ,24.6.1992,1992,24.6.1992,1992,-999,0,0,0,0,1,0,0,0,0
1339014,1,39,139,5600115,NYONG,ESEKA,CM,3.680,10.700,  21600.  ,146,1339100,0,,,,,1951,1977,27,0.00,1951,1977,27,    275.59,      8.69,402, 92.6,100. ,24.6.1992,1992,24.6.1992,1992,-999,0,0,0,0,1,0,0,0,0
1339015,1,39,139,5600118,NYONG,KAYA,CM,3.530,11.080,  19985.  ,617,1339014,0,,,,,1965,1977,13,2.84,1965,1977,13,    256.32,      8.08,404, 84.6, 97. ,24.6.1992,1992,24.6.1992,1992,-999,0,0,0,0,1,0,0,0,0
1339017,1,39,139,5600127,NYONG,OLAMA,CM,3.430,11.280,  18510.  ,628,1339015,0,,,,,1964,1977,14,0.00,1964,1977,14,    227.16,      7.16,387, 85.7,100. ,24.6.1992,1992,24.6.1992,1992,-999,0,0,0,0,1,0,1,0,0
1339100,1,39,139,,NYONG,DEHANE,CM,3.570,10.120,  26400.  ,15,0,0,,,,,1951,1977,27,1.59,1951,1977,27,    441.63,     13.93,528, 92.6, 99.7,18.2.1992,1992,18.2.1992,1992,-999,0,1,0,0,1,0,1,0,0
1339500,1,39,139,,NYONG,MBALMAYO,CM,3.520,11.500,  13555.  ,634,1339017,0,,,,,1951,1979,29,0.00,1951,1979,29,    149.38,      4.71,348,100. ,100. ,18.2.1992,1992,18.2.1992,1992,-999,0,0,0,0,1,0,1,0,0
1340500,1,40,140,,NTEM,NGOAZIK,CM,2.300,11.300,  18100.  ,500,0,0,,,,,1953,1979,27,0.00,1953,1979,27,    277.82,      8.76,484, 96.3,100. ,18.2.1992,1992,18.2.1992,1992,-999,0,0,0,0,1,0,1,0,0
1642500,1,42,142,,MBEI,ANDOK-FOULA,GA,0.370,10.230,   1700.  ,-999,0,0,,,,,1966,1974,9,7.29,1966,1974,9,     63.19,      1.99,1172, 66.7, 97.2,28.2.1992,1992,28.2.1992,1992,-999,0,0,0,0,0,0,0,0,0
1643100,1,43,143,,OGOOUE,LAMBARENE,GA,-0.680,10.230, 205000.  ,9,0,0,,,,,1930,1975,46,8.70,1930,1975,46,   4688.7 ,    147.86,721, 91.3,100. ,18.2.1992,1992,18.2.1992,1992,-999,0,1,0,0,1,0,0,0,0
1643150,1,43,143,,NGOUNIE,FOUGAMOU,GA,-1.220,11.590,  22000.  ,-999,1643100,0,,,,,1965,1974,10,0.00,1965,1974,10,    715.45,     22.56,1026, 80. ,100. ,28.2.1992,1992,28.2.1992,1992,-999,0,0,0,0,1,0,0,0,0
1643200,1,43,143,,OGOOUE,NDJOLE,GA,-0.180,10.770, 158100.  ,-999,1643100,0,,,,,1965,1974,10,0.93,1965,1974,10,   3141.42,     99.07,627, 80. , 99. ,28.2.1992,1992,28.2.1992,1992,-999,0,0,0,0,1,0,0,0,0
1643220,1,43,143,,NGOUNIE,MOUILA-VAL-MARIE,GA,-1.890,11.560,  15900.  ,-999,1643150,0,,,,,1965,1974,10,0.00,1965,1974,10,    483.92,     15.26,960, 80. ,100. ,28.2.1992,1992,28.2.1992,1992,-999,0,0,0,0,1,0,0,0,0
1643250,1,43,143,,OGOOUE,PORTES DE L'OKANDA,GA,-0.100,11.610, 140000.  ,-999,1643200,0,,,,,1965,1974,10,1.90,1965,1974,10,   2859.58,     90.18,644, 80. , 97.9,28.2.1992,1992,28.2.1992,1992,-999,0,0,0,0,1,0,0,0,0
1643260,1,43,143,,LOUETSIE,BAC DE BONGOLO,GA,-2.230,11.500,   2700.  ,-999,1643220,0,,,,,1966,1974,9,0.00,1966,1974,9,    104.98,      3.31,1226, 77.8,100. ,28.2.1992,1992,28.2.1992,1992,-999,0,0,0,0,0,0,0,0,0
1643300,1,43,143,,OGOOUE,BOOUE,GA,-0.100,11.940, 129600.  ,-999,1643250,0,,,,,1965,1974,10,0.00,1965,1974,10,   2707.46,     85.38,659, 80. ,100. ,28.2.1992,1992,28.2.1992,1992,-999,0,0,0,0,1,0,0,0,0
1643320,1,43,143,,MVOUNG,OVAN,GA,0.310,12.190,   8900.  ,-999,1643300,0,,,,,1966,1974,9,0.00,1966,1974,9,    152.12,      4.8 ,539, 77.8,100. ,28.2.1992,1992,28.2.1992,1992,-999,0,0,0,0,0,0,0,0,0
1643350,1,43,143,,BOUENGIDI,KOULAMOUTOU,GA,-1.130,12.470,   2200.  ,-999,1643400,0,,,,,1965,1974,10,0.00,1965,1974,10,     60.02,      1.89,860, 80. ,100. ,28.2.1992,1992,28.2.1992,1992,-999,0,0,0,0,0,0,0,0,0
1643370,1,43,143,,LEBIYOU,BAC DE NDJAKONAMOYE,GA,-1.010,12.530,   2300.  ,-999,1643400,0,,,,,1966,1974,9,5.21,1966,1974,9,     58.06,      1.83,796, 66.7, 97.2,28.2.1992,1992,28.2.1992,1992,-999,0,0,0,0,0,0,0,0,0
1643400,1,43,143,,OGOOUE,LASTOURVILLE,GA,-0.810,12.730,  47700.  ,-999,1643300,0,,,,,1966,1974,9,12.77,1966,1974,9,   1231.52,     38.84,814, 66.7, 97.2,28.2.1992,1992,28.2.1992,1992,-999,0,0,0,0,0,0,0,0,0
1643420,1,43,143,,IVINDO,LOA-LOA,GA,0.510,12.830,  48500.  ,-999,1643300,0,,,,,1965,1974,10,0.00,1965,1974,10,    788.99,     24.88,513, 80. ,100. ,28.2.1992,1992,28.2.1992,1992,-999,0,0,0,0,1,0,0,0,0
1643450,1,43,143,,IVINDO,MAKOKOU,GA,0.570,12.860,  35800.  ,-999,1643450,0,,,,,1965,1974,10,0.00,1965,1974,10,    577.51,     18.21,509, 80. ,100. ,28.2.1992,1992,28.2.1992,1992,-999,0,0,0,0,1,0,0,0,0
1643500,1,43,143,,OGOOUE,FRANCEVILLE,GA,-1.640,13.530,   8800.  ,-999,1643400,0,,,,,1965,1974,10,0.00,1965,1974,10,    260.09,      8.2 ,932, 80. ,100. ,28.2.1992,1992,28.2.1992,1992,-999,0,0,0,0,1,0,0,0,0
1643520,1,43,143,,MPASSA,BAC D'OKONDJA,GA,-1.630,13.610,   6400.  ,-999,1643500,0,,,,,1965,1974,10,12.96,1965,1974,10,    231.23,      7.29,1139, 60. , 93.1,28.2.1992,1992,28.2.1992,1992,-999,0,0,0,0,1,0,0,0,0
1643550,1,43,143,,DJOUMOU,BAC D'ONKOUA,GA,-1.690,13.660,   1400.  ,-999,1643520,0,,,,,1965,1974,10,19.23,1965,1974,10,     57.31,      1.81,1291, 60. ,100. ,28.2.1992,1992,28.2.1992,1992,-999,0,0,0,0,0,0,0,0,0
1644100,1,44,144,,NYANGA,IBANGA,GA,-2.760,10.720,  20000.  ,-999,0,0,,,,,1965,1974,10,25.00,1965,1974,10,    543.15,     17.13,856, 40. ,100. ,28.2.1992,1992,28.2.1992,1992,-999,0,0,0,0,1,0,0,0,0
1444100,1,44,144,760106,NYANGA,DONGUILA,CG,-2.870,11.970,   5800.  ,200,1644200,0,1978,1980,3,1.37,1973,1983,11,0.00,1973,1983,11,    198.39,      6.26,1079,100. ,100. ,10.1.1992,1992,18.2.1992,1992,-999,0,0,0,0,1,0,0,0,0
1644200,1,44,144,,NYANGA,TCHIBANGA,GA,-2.870,11.010,  12400.  ,-999,1644100,0,,,,,1965,1974,10,6.54,1965,1974,10,    321.51,     10.14,818, 80. , 97.9,28.2.1992,1992,28.2.1992,1992,-999,0,0,0,0,1,0,0,0,0
1445050,1,45,145,,NIARI,KAYES,CG,-4.170,13.300,  17190.  ,115,1445490,0,,,,,1969,1983,15,0.00,1969,1983,15,    315.59,      9.95,579,100. ,100. ,18.2.1992,1992,18.2.1992,1992,-999,0,0,0,0,1,0,0,0,0
1445100,1,45,145,,KOUILOU,SOUNDA,CG,-4.100,12.070,  55010.  ,8,0,0,,,,,1956,1982,27,13.52,1956,1982,27,    876.43,     27.64,502, 77.8, 99.6,18.2.1992,1992,24.3.2004,2004,21,0,1,0,1,1,0,1,0,0
1445400,1,45,145,7352105,MOUINDI,MOUINDI II,CG,-3.930,12.770,    101.  ,150,1445100,0,1978,1980,3,12.50,1978,1980,3,11.11,1978,1980,3,       .12,       .  ,38, 66.7, 95.8,10.1.1992,1992,27.3.1996,1996,-999,0,0,0,0,0,0,0,0,0
1445490,1,45,145,,NIARI,LOUDIMA,CG,-4.120,13.080,  23385.  ,105,1445100,0,,,,,1969,1983,15,0.00,1969,1983,15,    379.17,     11.96,511,100. ,100. ,18.2.1992,1992,18.2.1992,1992,-999,0,0,0,0,1,0,1,0,0
1445500,1,45,145,7353006,LOUDIMA,IFAC,CG,-4.130,13.070,   3990.  ,115,1445490,0,1978,1980,3,0.36,1973,1983,11,0.00,1973,1983,11,     28.49,       .9 ,225,100. ,100. ,10.1.1992,1992,18.2.1992,1992,-999,0,0,0,0,1,0,0,0,0
1445600,1,45,145,,NIARI,SAFEL,CG,-4.250,14.050,   8620.  ,150,1445050,0,,,,,1969,1983,15,7.78,1969,1983,15,    165.22,      5.21,604, 93.3, 98.8,18.2.1992,1992,18.2.1992,1992,-999,0,0,0,0,1,0,0,0,0
1445700,1,45,145,7351309,BOUENZA,MIAMBOU,CG,-3.880,13.720,   4920.  ,400,1445100,0,1978,1980,3,0.64,1978,1980,3,0.00,1978,1980,3,    102.87,      3.24,659,100. ,100. ,10.1.1992,1992,27.3.1996,1996,-999,0,0,0,0,0,0,0,0,0
1445800,1,45,145,7351403,COMBA,KINGOYI,CG,-4.230,14.280,     90.  ,300,1445600,0,1978,1980,3,0.18,1973,1983,11,0.76,1973,1983,11,       .89,       .03,312,100. , 99.2,10.1.1992,1992,18.2.1992,1992,-999,0,0,0,0,0,0,0,0,0
1147010,1,47,147,,CONGO,KINSHASA,CD,-4.300,15.300,3475000.  ,-999,0,0,1903,2010,108,0.04,1903,1983,81,0.00,1903,2010,108,  39849.46,   1256.69,362,100. ,100. ,17.1.1992,1992,24.5.2011,2011,-999,0,1,1,0,1,0,1,0,0
1147011,1,47,147,,CONGO,PONTHIERVILLE,CD,-0.350,25.450, 948500.  ,414,1147013,0,1932,1959,28,63.53,,,,,1932,1959,28,   6705.96,    211.48,223, 32.1,100. ,2.12.2004,2004,10.12.2004,2004,0,0,0,0,0,1,0,1,0,0
1147012,1,47,147,,CONGO,KINDU,CD,-2.950,25.917, 810440.  ,420,1147011,0,1933,1959,27,62.29,,,,,1933,1959,27,   2261.8 ,     71.33,88, 33.3,100. ,2.12.2004,2004,10.12.2004,2004,0,0,0,0,0,1,0,0,0,0
1147013,1,47,147,,CONGO,KINSHASA-EAST (LEOPOLDVILLE-EST),CD,-4.137,15.333,3747320.  ,272,1147010,0,1932,1959,28,63.40,,,,,1932,1959,28,  38932.81,   1227.79,328, 32.1,100. ,2.12.2004,2004,10.12.2004,2004,0,0,0,1,0,1,0,0,0,0
